{"type":"FeatureCollection","features":[{"type":"Feature","geometry":{"type":"Point","coordinates":[-73.85608,40.84845]},"properties":{"name":"Morris Park Bake Shop"},"id":0},{"type":"Feature","geometry":{"type":"Point","coordinates":[-73.9617,40.66294]},"properties":{"name":"Wendy'S"},"id":1},{"type":"Feature","geometry":{"type":"Point","coordinates":[-73.98242,40.5795]},"properties":{"name":"Riviera Caterer"},"id":2},{"type":"Feature","geometry":{"type":"Point","coordinates":[-73.86012,40.73117]},"properties":{"name":"Tov Kosher Kitchen"},"id":3},{"type":"Feature","geometry":{"type":"Point","coordinates":[-73.88038,40.76431]},"properties":{"name":"Brunos On The Boulevard"},"id":4},{"type":"Feature","geometry":{"type":"Point","coordinates":[-73.98514,40.76769]},"properties":{"name":"Dj Reynolds Pub And Restaurant"},"id":5},{"type":"Feature","geometry":{"type":"Point","coordinates":[-73.90685,40.6199]},"properties":{"name":"Wilken'S Fine Food"},"id":6},{"type":"Feature","geometry":{"type":"Point","coordinates":[-74.00529,40.62889]},"properties":{"name":"Regina Caterers"},"id":7},{"type":"Feature","geometry":{"type":"Point","coordinates":[-73.94826,40.64083]},"properties":{"name":"Taste The Tropics Ice Cream"},"id":8},{"type":"Feature","geometry":{"type":"Point","coordinates":[-74.13773,40.61196]},"properties":{"name":"Kosher Island"},"id":9},{"type":"Feature","geometry":{"type":"Point","coordinates":[-73.87861,40.85029]},"properties":{"name":"Wild Asia"},"id":10},{"type":"Feature","geometry":{"type":"Point","coordinates":[-73.99733,40.61175]},"properties":{"name":"C & C Catering Service"},"id":11},{"type":"Feature","geometry":{"type":"Point","coordinates":[-73.96927,40.76852]},"properties":{"name":"1 East 66Th Street Kitchen"},"id":12},{"type":"Feature","geometry":{"type":"Point","coordinates":[-73.87119,40.6731]},"properties":{"name":"May May Kitchen"},"id":13},{"type":"Feature","geometry":{"type":"Point","coordinates":[-73.9654,40.60643]},"properties":{"name":"Seuda Foods"},"id":14},{"type":"Feature","geometry":{"type":"Point","coordinates":[-73.97822,40.64353]},"properties":{"name":"Carvel Ice Cream"},"id":15},{"type":"Feature","geometry":{"type":"Point","coordinates":[-73.70326,40.73864]},"properties":{"name":"Carvel Ice Cream"},"id":16},{"type":"Feature","geometry":{"type":"Point","coordinates":[-74.02596,40.63537]},"properties":{"name":"Nordic Delicacies"},"id":17},{"type":"Feature","geometry":{"type":"Point","coordinates":[-73.98292,40.65808]},"properties":{"name":"The Movable Feast"},"id":18},{"type":"Feature","geometry":{"type":"Point","coordinates":[-73.8393,40.78147]},"properties":{"name":"Sal'S Deli"},"id":19},{"type":"Feature","geometry":{"type":"Point","coordinates":[-73.95171,40.76746]},"properties":{"name":"Glorious Food"},"id":20},{"type":"Feature","geometry":{"type":"Point","coordinates":[-73.99253,40.73093]},"properties":{"name":"Bully'S Deli"},"id":21},{"type":"Feature","geometry":{"type":"Point","coordinates":[-73.97611,40.78671]},"properties":{"name":"Harriet'S Kitchen"},"id":22},{"type":"Feature","geometry":{"type":"Point","coordinates":[-73.94025,40.76233]},"properties":{"name":"Steve Chu'S Deli & Grocery"},"id":23},{"type":"Feature","geometry":{"type":"Point","coordinates":[-73.96806,40.79256]},"properties":{"name":"P & S Deli Grocery"},"id":24},{"type":"Feature","geometry":{"type":"Point","coordinates":[-73.99698,40.72589]},"properties":{"name":"Angelika Film Center"},"id":25},{"type":"Feature","geometry":{"type":"Point","coordinates":[-73.96349,40.694]},"properties":{"name":"White Castle"},"id":26},{"type":"Feature","geometry":{"type":"Point","coordinates":[-73.86423,40.75356]},"properties":{"name":"Ho Mei Restaurant"},"id":27},{"type":"Feature","geometry":{"type":"Point","coordinates":[-74.00854,40.70621]},"properties":{"name":"The Country Cafe"},"id":28},{"type":"Feature","geometry":{"type":"Point","coordinates":[-73.9246,40.65224]},"properties":{"name":"Shashemene Int'L Restaura"},"id":29},{"type":"Feature","geometry":{"type":"Point","coordinates":[-74.00921,40.71329]},"properties":{"name":"Downtown Deli"},"id":30},{"type":"Feature","geometry":{"type":"Point","coordinates":[-73.84857,40.89038]},"properties":{"name":"Carvel Ice Cream"},"id":31},{"type":"Feature","geometry":{"type":"Point","coordinates":[-73.9915,40.69227]},"properties":{"name":"Dunkin' Donuts"},"id":32},{"type":"Feature","geometry":{"type":"Point","coordinates":[-73.9998,40.72513]},"properties":{"name":"Olive'S"},"id":33},{"type":"Feature","geometry":{"type":"Point","coordinates":[-73.88937,40.81376]},"properties":{"name":"Happy Garden"},"id":34},{"type":"Feature","geometry":{"type":"Point","coordinates":[-73.99049,40.75695]},"properties":{"name":"Cafe Metro"},"id":35},{"type":"Feature","geometry":{"type":"Point","coordinates":[-73.90246,40.69492]},"properties":{"name":"Tony'S Deli"},"id":36},{"type":"Feature","geometry":{"type":"Point","coordinates":[-73.97535,40.75163]},"properties":{"name":"Lexler Deli"},"id":37},{"type":"Feature","geometry":{"type":"Point","coordinates":[-74.14593,40.61037]},"properties":{"name":"Bagels N Buns"},"id":38},{"type":"Feature","geometry":{"type":"Point","coordinates":[-73.87402,40.7135]},"properties":{"name":"Hot Bagels"},"id":39},{"type":"Feature","geometry":{"type":"Point","coordinates":[-73.83095,40.70011]},"properties":{"name":"Snack Time Grill"},"id":40},{"type":"Feature","geometry":{"type":"Point","coordinates":[-73.97915,40.74433]},"properties":{"name":"Domino'S Pizza"},"id":41},{"type":"Feature","geometry":{"type":"Point","coordinates":[-73.95685,40.77534]},"properties":{"name":"Lorenzo & Maria'S"},"id":42},{"type":"Feature","geometry":{"type":"Point","coordinates":[-73.97539,40.75737]},"properties":{"name":"Berkely"},"id":43},{"type":"Feature","geometry":{"type":"Point","coordinates":[-73.90755,40.64387]},"properties":{"name":"Sonny'S Heros"},"id":44},{"type":"Feature","geometry":{"type":"Point","coordinates":[-74.07964,40.59878]},"properties":{"name":"Carvel Ice Cream"},"id":45},{"type":"Feature","geometry":{"type":"Point","coordinates":[-73.92702,40.66202]},"properties":{"name":"Golden Pavillion"},"id":46},{"type":"Feature","geometry":{"type":"Point","coordinates":[-73.98069,40.77786]},"properties":{"name":"Domino'S Pizza"},"id":47},{"type":"Feature","geometry":{"type":"Point","coordinates":[-73.96151,40.62533]},"properties":{"name":"Kosher Bagel Hole"},"id":48},{"type":"Feature","geometry":{"type":"Point","coordinates":[-73.96084,40.80143]},"properties":{"name":"Spoon Bread Catering"},"id":49},{"type":"Feature","geometry":{"type":"Point","coordinates":[-84.20408,9.99866]},"properties":{"name":"Terminal Cafe/Yankee Clipper"},"id":50},{"type":"Feature","geometry":{"type":"Point","coordinates":[-74.02284,40.62818]},"properties":{"name":"Mejlander & Mulgannon"},"id":51},{"type":"Feature","geometry":{"type":"Point","coordinates":[-74.11789,40.57349]},"properties":{"name":"Plaza Bagels & Deli"},"id":52},{"type":"Feature","geometry":{"type":"Point","coordinates":[-74.00619,40.7092]},"properties":{"name":"Texas Rotisserie"},"id":53},{"type":"Feature","geometry":{"type":"Point","coordinates":[-74.034,40.61271]},"properties":{"name":"Philadelhia Grille Express"},"id":54},{"type":"Feature","geometry":{"type":"Point","coordinates":[-73.96252,40.7098]},"properties":{"name":"Peter Luger Steakhouse"},"id":55},{"type":"Feature","geometry":{"type":"Point","coordinates":[-73.9712,40.7517]},"properties":{"name":"Palm Restaurant"},"id":56},{"type":"Feature","geometry":{"type":"Point","coordinates":[-73.89419,40.86347]},"properties":{"name":"Happy Garden"},"id":57},{"type":"Feature","geometry":{"type":"Point","coordinates":[-73.97744,40.76045]},"properties":{"name":"21 Club"},"id":58},{"type":"Feature","geometry":{"type":"Point","coordinates":[-73.81364,40.82941]},"properties":{"name":"Manhem Club"},"id":59},{"type":"Feature","geometry":{"type":"Point","coordinates":[-74.15236,40.55638]},"properties":{"name":"B & M Hot Bagel & Grocery"},"id":60},{"type":"Feature","geometry":{"type":"Point","coordinates":[-73.96603,40.76283]},"properties":{"name":"Isle Of Capri Resturant"},"id":61},{"type":"Feature","geometry":{"type":"Point","coordinates":[-73.98919,40.73756]},"properties":{"name":"Old Town Bar & Restaurant"},"id":62},{"type":"Feature","geometry":{"type":"Point","coordinates":[-73.94839,40.72249]},"properties":{"name":"Polish National Home"},"id":63},{"type":"Feature","geometry":{"type":"Point","coordinates":[-73.97166,40.76483]},"properties":{"name":"Metropolitan Club"},"id":64},{"type":"Feature","geometry":{"type":"Point","coordinates":[-74.00311,40.73489]},"properties":{"name":"Seville Restaurant"},"id":65},{"type":"Feature","geometry":{"type":"Point","coordinates":[-74.00105,40.71599]},"properties":{"name":"Criminal Court Bldg Cafeteria"},"id":66},{"type":"Feature","geometry":{"type":"Point","coordinates":[-73.90567,40.70669]},"properties":{"name":"Gottscheer Hall"},"id":67},{"type":"Feature","geometry":{"type":"Point","coordinates":[-73.97887,40.7666]},"properties":{"name":"Nyac Main Dining Room"},"id":68},{"type":"Feature","geometry":{"type":"Point","coordinates":[-73.98146,40.72501]},"properties":{"name":"7B Bar"},"id":69},{"type":"Feature","geometry":{"type":"Point","coordinates":[-73.86137,40.72938]},"properties":{"name":"Ben-Best Deli & Restaurant"},"id":70},{"type":"Feature","geometry":{"type":"Point","coordinates":[-73.98057,40.76594]},"properties":{"name":"Cafe Atelier (Art Students League)"},"id":71},{"type":"Feature","geometry":{"type":"Point","coordinates":[-73.96553,40.76543]},"properties":{"name":"Donohue'S Steak House"},"id":72},{"type":"Feature","geometry":{"type":"Point","coordinates":[-73.98189,40.69012]},"properties":{"name":"Junior'S"},"id":73},{"type":"Feature","geometry":{"type":"Point","coordinates":[-73.98622,40.76341]},"properties":{"name":"Tout Va Bien"},"id":74},{"type":"Feature","geometry":{"type":"Point","coordinates":[-74.13826,40.54668]},"properties":{"name":"Great Kills Yacht Club"},"id":75},{"type":"Feature","geometry":{"type":"Point","coordinates":[-73.97756,40.7432]},"properties":{"name":"Marchis Restaurant"},"id":76},{"type":"Feature","geometry":{"type":"Point","coordinates":[-73.95444,40.5878]},"properties":{"name":"Towne Cafe"},"id":77},{"type":"Feature","geometry":{"type":"Point","coordinates":[-73.84044,40.66272]},"properties":{"name":"New Park Pizzeria & Restaurant"},"id":78},{"type":"Feature","geometry":{"type":"Point","coordinates":[-73.96486,40.7619]},"properties":{"name":"Serendipity 3"},"id":79},{"type":"Feature","geometry":{"type":"Point","coordinates":[-73.75224,40.77669]},"properties":{"name":"Douglaston Club"},"id":80},{"type":"Feature","geometry":{"type":"Point","coordinates":[-73.91511,40.76338]},"properties":{"name":"Rizzo'S Fine Pizza"},"id":81},{"type":"Feature","geometry":{"type":"Point","coordinates":[-74.00294,40.65278]},"properties":{"name":"Melody Lanes"},"id":82},{"type":"Feature","geometry":{"type":"Point","coordinates":[-73.84972,40.83048]},"properties":{"name":"The New Starling Athletic Club Of The Bronx"},"id":83},{"type":"Feature","geometry":{"type":"Point","coordinates":[-74.00619,40.73566]},"properties":{"name":"White Horse Tavern"},"id":84},{"type":"Feature","geometry":{"type":"Point","coordinates":[-74.07074,40.59322]},"properties":{"name":"Crystal Room"},"id":85},{"type":"Feature","geometry":{"type":"Point","coordinates":[-74.07444,40.60969]},"properties":{"name":"Labetti'S Post # 2159"},"id":86},{"type":"Feature","geometry":{"type":"Point","coordinates":[-73.97276,40.58885]},"properties":{"name":"Shell Lanes"},"id":87},{"type":"Feature","geometry":{"type":"Point","coordinates":[-73.98967,40.7288]},"properties":{"name":"Mcsorley'S Old Ale House"},"id":88},{"type":"Feature","geometry":{"type":"Point","coordinates":[-73.9995,40.71692]},"properties":{"name":"Forlinis Restaurant"},"id":89},{"type":"Feature","geometry":{"type":"Point","coordinates":[-74.22749,40.5072]},"properties":{"name":"South Shore Swimming Club"},"id":90},{"type":"Feature","geometry":{"type":"Point","coordinates":[-74.00378,40.73801]},"properties":{"name":"Corner Bistro"},"id":91},{"type":"Feature","geometry":{"type":"Point","coordinates":[-73.94934,40.65098]},"properties":{"name":"Nostrand Donut Shop"},"id":92},{"type":"Feature","geometry":{"type":"Point","coordinates":[-73.97557,40.75968]},"properties":{"name":"La Grenouille"},"id":93},{"type":"Feature","geometry":{"type":"Point","coordinates":[-73.95245,40.77632]},"properties":{"name":"Dorrian'S Red Hand Restaurant"},"id":94},{"type":"Feature","geometry":{"type":"Point","coordinates":[-73.93952,40.84229]},"properties":{"name":"Como Pizza"},"id":95},{"type":"Feature","geometry":{"type":"Point","coordinates":[-73.9973,40.71887]},"properties":{"name":"Angelo Of Mulberry St."},"id":96},{"type":"Feature","geometry":{"type":"Point","coordinates":[-74.00104,40.7298]},"properties":{"name":"Panchito'S"},"id":97},{"type":"Feature","geometry":{"type":"Point","coordinates":[-74.01661,40.62848]},"properties":{"name":"New Corner"},"id":98},{"type":"Feature","geometry":{"type":"Point","coordinates":[-74.00476,40.74121]},"properties":{"name":"Old Homestead"},"id":99},{"type":"Feature","geometry":{"type":"Point","coordinates":[-48.9424,-16.355]},"properties":{"name":"Dining Room"},"id":100},{"type":"Feature","geometry":{"type":"Point","coordinates":[-73.98126,40.75471]},"properties":{"name":"The Princeton Club"},"id":101},{"type":"Feature","geometry":{"type":"Point","coordinates":[-73.96462,40.75501]},"properties":{"name":"Le Perigord"},"id":102},{"type":"Feature","geometry":{"type":"Point","coordinates":[-74.1221,40.61294]},"properties":{"name":"Joe & Pat'S Pizzeria"},"id":103},{"type":"Feature","geometry":{"type":"Point","coordinates":[-73.93651,40.84971]},"properties":{"name":"Reynold'S Bar"},"id":104},{"type":"Feature","geometry":{"type":"Point","coordinates":[-73.97064,40.75149]},"properties":{"name":"Keats Restaurant"},"id":105},{"type":"Feature","geometry":{"type":"Point","coordinates":[-73.99792,40.73713]},"properties":{"name":"Spain Restaurant & Bar"},"id":106},{"type":"Feature","geometry":{"type":"Point","coordinates":[-73.94464,40.72539]},"properties":{"name":"Palace Cafe"},"id":107},{"type":"Feature","geometry":{"type":"Point","coordinates":[-73.92506,40.82756]},"properties":{"name":"Yankee Tavern"},"id":108},{"type":"Feature","geometry":{"type":"Point","coordinates":[-73.99987,40.73864]},"properties":{"name":"Donut Pub"},"id":109},{"type":"Feature","geometry":{"type":"Point","coordinates":[-74.00566,40.74524]},"properties":{"name":"Moran'S Chelsea"},"id":110},{"type":"Feature","geometry":{"type":"Point","coordinates":[-73.96392,40.80339]},"properties":{"name":"V & T Restaurant"},"id":111},{"type":"Feature","geometry":{"type":"Point","coordinates":[-73.95901,40.70901]},"properties":{"name":"Reben Luncheonette"},"id":112},{"type":"Feature","geometry":{"type":"Point","coordinates":[-73.78676,40.72713]},"properties":{"name":"King Yum Restaurant"},"id":113},{"type":"Feature","geometry":{"type":"Point","coordinates":[-73.98969,40.61995]},"properties":{"name":"J&V Famous Pizza"},"id":114},{"type":"Feature","geometry":{"type":"Point","coordinates":[-73.885,40.74943]},"properties":{"name":"Jahn'S Restaurant"},"id":115},{"type":"Feature","geometry":{"type":"Point","coordinates":[-73.97999,40.76609]},"properties":{"name":"La Parisienne Diner"},"id":116},{"type":"Feature","geometry":{"type":"Point","coordinates":[-73.98913,40.76004]},"properties":{"name":"Joe Allen Restaurant"},"id":117},{"type":"Feature","geometry":{"type":"Point","coordinates":[-74.16536,40.54508]},"properties":{"name":"Joyce'S Tavern"},"id":118},{"type":"Feature","geometry":{"type":"Point","coordinates":[-74.00033,40.72749]},"properties":{"name":"Arturo'S"},"id":119},{"type":"Feature","geometry":{"type":"Point","coordinates":[-73.98895,40.76034]},"properties":{"name":"Barbetta Restaurant"},"id":120},{"type":"Feature","geometry":{"type":"Point","coordinates":[-73.98224,40.57637]},"properties":{"name":"Gargiulo'S Restaurant"},"id":121},{"type":"Feature","geometry":{"type":"Point","coordinates":[-73.96118,40.76192]},"properties":{"name":"Il Vagabondo Restaurant"},"id":122},{"type":"Feature","geometry":{"type":"Point","coordinates":[-73.85613,40.74384]},"properties":{"name":"Parkside Restaurant"},"id":123},{"type":"Feature","geometry":{"type":"Point","coordinates":[-73.91427,40.75694]},"properties":{"name":"Lavelle'S Admiral'S Club"},"id":124},{"type":"Feature","geometry":{"type":"Point","coordinates":[-73.96351,40.75827]},"properties":{"name":"Neary'S Pub"},"id":125},{"type":"Feature","geometry":{"type":"Point","coordinates":[-73.87787,40.87244]},"properties":{"name":"Mcdwyers Pub"},"id":126},{"type":"Feature","geometry":{"type":"Point","coordinates":[-73.9983,40.71505]},"properties":{"name":"Mee Sum Coffee Shop"},"id":127},{"type":"Feature","geometry":{"type":"Point","coordinates":[-73.70903,40.7276]},"properties":{"name":"Nancy'S Fire Side"},"id":128},{"type":"Feature","geometry":{"type":"Point","coordinates":[-73.99903,40.7144]},"properties":{"name":"Hop Kee Restaurant"},"id":129},{"type":"Feature","geometry":{"type":"Point","coordinates":[-74.00492,40.7207]},"properties":{"name":"Nancy Whiskey Pub"},"id":130},{"type":"Feature","geometry":{"type":"Point","coordinates":[-73.80859,40.70203]},"properties":{"name":"Blarney Bar"},"id":131},{"type":"Feature","geometry":{"type":"Point","coordinates":[-73.78999,40.71186]},"properties":{"name":"Margherita Pizza"},"id":132},{"type":"Feature","geometry":{"type":"Point","coordinates":[-73.82994,40.58121]},"properties":{"name":"Healy'S Pub"},"id":133},{"type":"Feature","geometry":{"type":"Point","coordinates":[-73.98586,40.67017]},"properties":{"name":"Fifth Avenue Bingo"},"id":134},{"type":"Feature","geometry":{"type":"Point","coordinates":[-74.14021,40.63019]},"properties":{"name":"Denino'S Pizzeria Tavern"},"id":135},{"type":"Feature","geometry":{"type":"Point","coordinates":[-73.94285,40.60763]},"properties":{"name":"Michael'S Restaurant"},"id":136},{"type":"Feature","geometry":{"type":"Point","coordinates":[-73.99532,40.75021]},"properties":{"name":"New York Pizza Suprema"},"id":137},{"type":"Feature","geometry":{"type":"Point","coordinates":[-73.97368,40.75358]},"properties":{"name":"Nanni Restaurant"},"id":138},{"type":"Feature","geometry":{"type":"Point","coordinates":[-73.82771,40.69446]},"properties":{"name":"Lenihan'S Saloon"},"id":139},{"type":"Feature","geometry":{"type":"Point","coordinates":[-73.86827,40.74568]},"properties":{"name":"Emilio Iii Bar"},"id":140},{"type":"Feature","geometry":{"type":"Point","coordinates":[-74.00868,40.7052]},"properties":{"name":"Killarney Rose"},"id":141},{"type":"Feature","geometry":{"type":"Point","coordinates":[-73.82168,40.66895]},"properties":{"name":"Don Peppe"},"id":142},{"type":"Feature","geometry":{"type":"Point","coordinates":[-73.92504,40.55955]},"properties":{"name":"Blarney Castle"},"id":143},{"type":"Feature","geometry":{"type":"Point","coordinates":[-73.95507,40.59922]},"properties":{"name":"Three Star Restaurant"},"id":144},{"type":"Feature","geometry":{"type":"Point","coordinates":[-73.98926,40.75091]},"properties":{"name":"Blarney Rock"},"id":145},{"type":"Feature","geometry":{"type":"Point","coordinates":[-73.98306,40.74414]},"properties":{"name":"Desmond'S Tavern"},"id":146},{"type":"Feature","geometry":{"type":"Point","coordinates":[-73.82042,40.72424]},"properties":{"name":"Naomi Kosher Pizza"},"id":147},{"type":"Feature","geometry":{"type":"Point","coordinates":[-73.93962,40.58417]},"properties":{"name":"Roll-N-Roaster"},"id":148},{"type":"Feature","geometry":{"type":"Point","coordinates":[-74.00166,40.73197]},"properties":{"name":"Tio Pepe"},"id":149},{"type":"Feature","geometry":{"type":"Point","coordinates":[-73.94208,40.60024]},"properties":{"name":"Brennan & Carr"},"id":150},{"type":"Feature","geometry":{"type":"Point","coordinates":[-73.90026,40.88519]},"properties":{"name":"The Punch Bowl"},"id":151},{"type":"Feature","geometry":{"type":"Point","coordinates":[-73.87002,40.75047]},"properties":{"name":"Jardin De China Rest"},"id":152},{"type":"Feature","geometry":{"type":"Point","coordinates":[-73.82364,40.72617]},"properties":{"name":"Irish Cottage"},"id":153},{"type":"Feature","geometry":{"type":"Point","coordinates":[-74.0137,40.7062]},"properties":{"name":"Blarney Stone"},"id":154},{"type":"Feature","geometry":{"type":"Point","coordinates":[-73.82214,40.72724]},"properties":{"name":"Shimons Kosher Pizza"},"id":155},{"type":"Feature","geometry":{"type":"Point","coordinates":[-74.00279,40.73405]},"properties":{"name":"The Riviera Cafe"},"id":156},{"type":"Feature","geometry":{"type":"Point","coordinates":[-73.99271,40.69849]},"properties":{"name":"Fascati'S Pizzeria"},"id":157},{"type":"Feature","geometry":{"type":"Point","coordinates":[-73.97598,40.74513]},"properties":{"name":"Baby Bo'S Burritos"},"id":158},{"type":"Feature","geometry":{"type":"Point","coordinates":[-73.96908,40.75942]},"properties":{"name":"Shun Lee Palace Restaurant"},"id":159},{"type":"Feature","geometry":{"type":"Point","coordinates":[-74.11224,40.62982]},"properties":{"name":"Li Greci'S Staaten Restaurant"},"id":160},{"type":"Feature","geometry":{"type":"Point","coordinates":[-73.93001,40.59436]},"properties":{"name":"Tamaqua"},"id":161},{"type":"Feature","geometry":{"type":"Point","coordinates":[-73.91684,40.84014]},"properties":{"name":"Munchtime"},"id":162},{"type":"Feature","geometry":{"type":"Point","coordinates":[-73.74292,40.73057]},"properties":{"name":"Cara Mia"},"id":163},{"type":"Feature","geometry":{"type":"Point","coordinates":[-73.81946,40.88992]},"properties":{"name":"Ihop"},"id":164},{"type":"Feature","geometry":{"type":"Point","coordinates":[-73.80917,40.70542]},"properties":{"name":"Maloney'S Bar"},"id":165},{"type":"Feature","geometry":{"type":"Point","coordinates":[-74.10466,40.58834]},"properties":{"name":"Richmond County Country Club"},"id":166},{"type":"Feature","geometry":{"type":"Point","coordinates":[-73.88452,40.74477]},"properties":{"name":"La Fusta Restaurant"},"id":167},{"type":"Feature","geometry":{"type":"Point","coordinates":[-73.98274,40.76558]},"properties":{"name":"Patsy'S Italian Restaurant"},"id":168},{"type":"Feature","geometry":{"type":"Point","coordinates":[-73.85131,40.8317]},"properties":{"name":"Lulu'S Coffee Shop"},"id":169},{"type":"Feature","geometry":{"type":"Point","coordinates":[-73.96057,40.76098]},"properties":{"name":"Dangerfield'S Night Club"},"id":170},{"type":"Feature","geometry":{"type":"Point","coordinates":[-74.00066,40.73511]},"properties":{"name":"El Charro Espanol"},"id":171},{"type":"Feature","geometry":{"type":"Point","coordinates":[-73.95564,40.76868]},"properties":{"name":"Finnegan'S Wake"},"id":172},{"type":"Feature","geometry":{"type":"Point","coordinates":[-73.99078,40.61887]},"properties":{"name":"Da Vinci Pizza"},"id":173},{"type":"Feature","geometry":{"type":"Point","coordinates":[-73.96812,40.67878]},"properties":{"name":"Mitchell'S Restaurant"},"id":174},{"type":"Feature","geometry":{"type":"Point","coordinates":[-73.97984,40.7398]},"properties":{"name":"Mexico Lindo Restaurant"},"id":175},{"type":"Feature","geometry":{"type":"Point","coordinates":[-73.81517,40.81376]},"properties":{"name":"Marina Delray"},"id":176},{"type":"Feature","geometry":{"type":"Point","coordinates":[-73.99682,40.75318]},"properties":{"name":"Twins Pub"},"id":177},{"type":"Feature","geometry":{"type":"Point","coordinates":[-73.92709,40.61424]},"properties":{"name":"New Floridian Diner"},"id":178},{"type":"Feature","geometry":{"type":"Point","coordinates":[-74.03345,40.6126]},"properties":{"name":"Narrows Coffee Shop"},"id":179},{"type":"Feature","geometry":{"type":"Point","coordinates":[-74.00296,40.72311]},"properties":{"name":"Broome Street Bar"},"id":180},{"type":"Feature","geometry":{"type":"Point","coordinates":[-73.91212,40.77493]},"properties":{"name":"O'Hanlon'S Pub"},"id":181},{"type":"Feature","geometry":{"type":"Point","coordinates":[-73.90365,40.74133]},"properties":{"name":"Charlies Sports Bar"},"id":182},{"type":"Feature","geometry":{"type":"Point","coordinates":[-73.9593,40.77105]},"properties":{"name":"Jg Melon Restaurant"},"id":183},{"type":"Feature","geometry":{"type":"Point","coordinates":[-73.77752,40.77848]},"properties":{"name":"Jack'S Pizza & Pasta"},"id":184},{"type":"Feature","geometry":{"type":"Point","coordinates":[-74.00849,40.72581]},"properties":{"name":"Emerald Pub"},"id":185},{"type":"Feature","geometry":{"type":"Point","coordinates":[-73.97887,40.7666]},"properties":{"name":"Tap Room"},"id":186},{"type":"Feature","geometry":{"type":"Point","coordinates":[-73.97887,40.7666]},"properties":{"name":"Cocktail Room (Nyac)"},"id":187},{"type":"Feature","geometry":{"type":"Point","coordinates":[-73.98558,40.76861]},"properties":{"name":"Flame Restaurant Coffee House"},"id":188},{"type":"Feature","geometry":{"type":"Point","coordinates":[-73.96297,40.76387]},"properties":{"name":"Jackson Hole"},"id":189},{"type":"Feature","geometry":{"type":"Point","coordinates":[-73.88118,40.70178]},"properties":{"name":"Zum Stammtisch"},"id":190},{"type":"Feature","geometry":{"type":"Point","coordinates":[-73.98553,40.7306]},"properties":{"name":"John'S Restaurant"},"id":191},{"type":"Feature","geometry":{"type":"Point","coordinates":[-73.98899,40.72885]},"properties":{"name":"Grassroot Tavern"},"id":192},{"type":"Feature","geometry":{"type":"Point","coordinates":[-74.13502,40.6369]},"properties":{"name":"Buddy'S Wonder Bar"},"id":193},{"type":"Feature","geometry":{"type":"Point","coordinates":[-73.87688,40.70388]},"properties":{"name":"The Assembly Bar"},"id":194},{"type":"Feature","geometry":{"type":"Point","coordinates":[-73.98708,40.7523]},"properties":{"name":"Mr Broadway Kosher Restaurant"},"id":195},{"type":"Feature","geometry":{"type":"Point","coordinates":[-73.91178,40.76477]},"properties":{"name":"Piccola Venezia"},"id":196},{"type":"Feature","geometry":{"type":"Point","coordinates":[-74.10034,40.56554]},"properties":{"name":"Ni-Ni'S Cafe"},"id":197},{"type":"Feature","geometry":{"type":"Point","coordinates":[-73.92153,40.86782]},"properties":{"name":"Capitol Restaurant"},"id":198},{"type":"Feature","geometry":{"type":"Point","coordinates":[-73.95501,40.76802]},"properties":{"name":"Malaga Restaurant"},"id":199},{"type":"Feature","geometry":{"type":"Point","coordinates":[-73.97704,40.76231]},"properties":{"name":"La Bonne Soupe Bistro"},"id":200},{"type":"Feature","geometry":{"type":"Point","coordinates":[-73.96729,40.75612]},"properties":{"name":"Mimis Restaurant & Bar"},"id":201},{"type":"Feature","geometry":{"type":"Point","coordinates":[-73.83857,40.65567]},"properties":{"name":"Lenny'S Clam Bar"},"id":202},{"type":"Feature","geometry":{"type":"Point","coordinates":[-73.95426,40.76414]},"properties":{"name":"Griffis Faculty Club"},"id":203},{"type":"Feature","geometry":{"type":"Point","coordinates":[-73.8263,40.7006]},"properties":{"name":"Little Brown Jug"},"id":204},{"type":"Feature","geometry":{"type":"Point","coordinates":[-73.83053,40.70895]},"properties":{"name":"Dani Pizza And Restaurant"},"id":205},{"type":"Feature","geometry":{"type":"Point","coordinates":[-73.98186,40.77823]},"properties":{"name":"Gray'S Papaya"},"id":206},{"type":"Feature","geometry":{"type":"Point","coordinates":[-73.95803,40.64875]},"properties":{"name":"Mcdonald'S"},"id":207},{"type":"Feature","geometry":{"type":"Point","coordinates":[-73.95006,40.58383]},"properties":{"name":"El Greco Diner"},"id":208},{"type":"Feature","geometry":{"type":"Point","coordinates":[-74.00259,40.73248]},"properties":{"name":"One If By Land Two If By Sea"},"id":209},{"type":"Feature","geometry":{"type":"Point","coordinates":[-73.86184,40.67975]},"properties":{"name":"Mcdonald'S"},"id":210},{"type":"Feature","geometry":{"type":"Point","coordinates":[-73.98191,40.77151]},"properties":{"name":"Fiorellos"},"id":211},{"type":"Feature","geometry":{"type":"Point","coordinates":[-73.98128,40.59474]},"properties":{"name":"Lb Spumoni Gardens"},"id":212},{"type":"Feature","geometry":{"type":"Point","coordinates":[-73.83448,40.7693]},"properties":{"name":"Amore Pizzeria & Restaurant"},"id":213},{"type":"Feature","geometry":{"type":"Point","coordinates":[-73.86697,40.89795]},"properties":{"name":"The Lark'S Nest"},"id":214},{"type":"Feature","geometry":{"type":"Point","coordinates":[-73.87861,40.85029]},"properties":{"name":"Terrace Cafe"},"id":215},{"type":"Feature","geometry":{"type":"Point","coordinates":[-73.87861,40.85029]},"properties":{"name":"African Terrace"},"id":216},{"type":"Feature","geometry":{"type":"Point","coordinates":[-73.87861,40.85029]},"properties":{"name":"Cool Zone"},"id":217},{"type":"Feature","geometry":{"type":"Point","coordinates":[-73.87861,40.85029]},"properties":{"name":"African Market (Baboon Cafe)"},"id":218},{"type":"Feature","geometry":{"type":"Point","coordinates":[-73.87861,40.85029]},"properties":{"name":"Beaver Pond"},"id":219},{"type":"Feature","geometry":{"type":"Point","coordinates":[-74.10058,40.61342]},"properties":{"name":"Roadhouse Restaurant"},"id":220},{"type":"Feature","geometry":{"type":"Point","coordinates":[-73.97113,40.74987]},"properties":{"name":"Ford Foundation Cafeteria"},"id":221},{"type":"Feature","geometry":{"type":"Point","coordinates":[-74.00067,40.73622]},"properties":{"name":"Elephant & Castle"},"id":222},{"type":"Feature","geometry":{"type":"Point","coordinates":[-73.97706,40.753]},"properties":{"name":"Oyster Bar"},"id":223},{"type":"Feature","geometry":{"type":"Point","coordinates":[-73.98431,40.72582]},"properties":{"name":"Cherry Tavern"},"id":224},{"type":"Feature","geometry":{"type":"Point","coordinates":[-73.98272,40.7561]},"properties":{"name":"Red Flame Diner"},"id":225},{"type":"Feature","geometry":{"type":"Point","coordinates":[-74.09902,40.58117]},"properties":{"name":"Colonnade Diner"},"id":226},{"type":"Feature","geometry":{"type":"Point","coordinates":[-73.95379,40.77549]},"properties":{"name":"Brady'S Bar"},"id":227},{"type":"Feature","geometry":{"type":"Point","coordinates":[-73.91818,40.61571]},"properties":{"name":"Mill Basin Kosher Deli"},"id":228},{"type":"Feature","geometry":{"type":"Point","coordinates":[-73.97711,40.7563]},"properties":{"name":"Maggies Place"},"id":229},{"type":"Feature","geometry":{"type":"Point","coordinates":[-74.00624,40.73975]},"properties":{"name":"Da Silvano Restaurant"},"id":230},{"type":"Feature","geometry":{"type":"Point","coordinates":[-73.97656,40.74432]},"properties":{"name":"Benjamin"},"id":231},{"type":"Feature","geometry":{"type":"Point","coordinates":[-73.98484,40.75659]},"properties":{"name":"Jimmy'S Corner"},"id":232},{"type":"Feature","geometry":{"type":"Point","coordinates":[-73.97894,40.64293]},"properties":{"name":"Denny'S Pub"},"id":233},{"type":"Feature","geometry":{"type":"Point","coordinates":[-74.0034,40.73324]},"properties":{"name":"Maries Crisis Cafe"},"id":234},{"type":"Feature","geometry":{"type":"Point","coordinates":[-74.00341,40.73351]},"properties":{"name":"Boots & Saddle Bar"},"id":235},{"type":"Feature","geometry":{"type":"Point","coordinates":[-74.00781,40.62024]},"properties":{"name":"New Parkway Restaurant"},"id":236},{"type":"Feature","geometry":{"type":"Point","coordinates":[153.16288,-28.01686]},"properties":{"name":"Sammy'S Steakhouse"},"id":237},{"type":"Feature","geometry":{"type":"Point","coordinates":[-74.0004,40.74085]},"properties":{"name":"Cafe Riazor"},"id":238},{"type":"Feature","geometry":{"type":"Point","coordinates":[-73.97146,40.75965]},"properties":{"name":"The Brook"},"id":239},{"type":"Feature","geometry":{"type":"Point","coordinates":[-73.99825,40.71793]},"properties":{"name":"Il Cortile Restaurant"},"id":240},{"type":"Feature","geometry":{"type":"Point","coordinates":[-74.00214,40.72614]},"properties":{"name":"Raouls"},"id":241},{"type":"Feature","geometry":{"type":"Point","coordinates":[-73.94348,40.71839]},"properties":{"name":"Frost Restaurant"},"id":242},{"type":"Feature","geometry":{"type":"Point","coordinates":[-73.97691,40.75703]},"properties":{"name":"Hatsuhana Restaurant"},"id":243},{"type":"Feature","geometry":{"type":"Point","coordinates":[-73.96684,40.75683]},"properties":{"name":"La Mangeoire"},"id":244},{"type":"Feature","geometry":{"type":"Point","coordinates":[-73.81484,40.72883]},"properties":{"name":"Valentino'S Pizza"},"id":245},{"type":"Feature","geometry":{"type":"Point","coordinates":[-73.97017,40.76483]},"properties":{"name":"Viand Coffee Shop"},"id":246},{"type":"Feature","geometry":{"type":"Point","coordinates":[-73.97067,40.75145]},"properties":{"name":"Palm Too"},"id":247},{"type":"Feature","geometry":{"type":"Point","coordinates":[-91.59713,41.68239]},"properties":{"name":"Steve'S Coffee Shop"},"id":248},{"type":"Feature","geometry":{"type":"Point","coordinates":[-73.91001,40.88638]},"properties":{"name":"Blue Bay Restaurant"},"id":249},{"type":"Feature","geometry":{"type":"Point","coordinates":[-73.9717,40.75646]},"properties":{"name":"Nada-Sushi"},"id":250},{"type":"Feature","geometry":{"type":"Point","coordinates":[-73.9426,40.67096]},"properties":{"name":"The Hytes Bar"},"id":251},{"type":"Feature","geometry":{"type":"Point","coordinates":[-73.77962,40.7298]},"properties":{"name":"P.J.' S"},"id":252},{"type":"Feature","geometry":{"type":"Point","coordinates":[-73.94863,40.78137]},"properties":{"name":"Reif'S Tavern"},"id":253},{"type":"Feature","geometry":{"type":"Point","coordinates":[-74.10182,40.63079]},"properties":{"name":"Jody'S Club"},"id":254},{"type":"Feature","geometry":{"type":"Point","coordinates":[-73.83356,40.77032]},"properties":{"name":"Whitestone Lanes"},"id":255},{"type":"Feature","geometry":{"type":"Point","coordinates":[-73.8818,40.73477]},"properties":{"name":"John'S Pizzeria"},"id":256},{"type":"Feature","geometry":{"type":"Point","coordinates":[-73.7908,40.85418]},"properties":{"name":"Seashore Restaurant"},"id":257},{"type":"Feature","geometry":{"type":"Point","coordinates":[-73.76078,40.76188]},"properties":{"name":"Marbella Restaurant"},"id":258},{"type":"Feature","geometry":{"type":"Point","coordinates":[-74.00042,40.73027]},"properties":{"name":"Caffe Reggio"},"id":259},{"type":"Feature","geometry":{"type":"Point","coordinates":[-73.98413,40.75679]},"properties":{"name":"Cafe Un Deux Trois"},"id":260},{"type":"Feature","geometry":{"type":"Point","coordinates":[-73.88229,40.6482]},"properties":{"name":"Armando'S Pizza"},"id":261},{"type":"Feature","geometry":{"type":"Point","coordinates":[-73.98184,40.77603]},"properties":{"name":"Dan Tempura"},"id":262},{"type":"Feature","geometry":{"type":"Point","coordinates":[-73.99443,40.73201]},"properties":{"name":"Knickerbocker Bar & Grill"},"id":263},{"type":"Feature","geometry":{"type":"Point","coordinates":[-73.9873,40.75928]},"properties":{"name":"Pergola Des Artistes"},"id":264},{"type":"Feature","geometry":{"type":"Point","coordinates":[-73.98081,40.68951]},"properties":{"name":"Mcdonald'S"},"id":265},{"type":"Feature","geometry":{"type":"Point","coordinates":[-73.97358,40.74754]},"properties":{"name":"El Pote Espanol"},"id":266},{"type":"Feature","geometry":{"type":"Point","coordinates":[-73.94524,40.71772]},"properties":{"name":"Cafe Capri"},"id":267},{"type":"Feature","geometry":{"type":"Point","coordinates":[-73.99472,40.7032]},"properties":{"name":"The River Cafe"},"id":268},{"type":"Feature","geometry":{"type":"Point","coordinates":[-74.01238,40.70372]},"properties":{"name":"White Horse Tavern"},"id":269},{"type":"Feature","geometry":{"type":"Point","coordinates":[-73.85535,40.84264]},"properties":{"name":"Bronx Grill"},"id":270},{"type":"Feature","geometry":{"type":"Point","coordinates":[-74.00894,40.71514]},"properties":{"name":"Mudville Saloon"},"id":271},{"type":"Feature","geometry":{"type":"Point","coordinates":[-73.93217,40.66324]},"properties":{"name":"White Castle"},"id":272},{"type":"Feature","geometry":{"type":"Point","coordinates":[-73.78267,40.83777]},"properties":{"name":"Johnny'S Reef Restaurant"},"id":273},{"type":"Feature","geometry":{"type":"Point","coordinates":[-72.73293,41.30992]},"properties":{"name":"White Castle"},"id":274},{"type":"Feature","geometry":{"type":"Point","coordinates":[-73.92126,40.74301]},"properties":{"name":"White Castle"},"id":275},{"type":"Feature","geometry":{"type":"Point","coordinates":[-73.99303,40.64177]},"properties":{"name":"White Castle"},"id":276},{"type":"Feature","geometry":{"type":"Point","coordinates":[-74.00184,40.68424]},"properties":{"name":"Ferdinando'S Restaurant"},"id":277},{"type":"Feature","geometry":{"type":"Point","coordinates":[-73.84518,40.72009]},"properties":{"name":"Mcdonald'S"},"id":278},{"type":"Feature","geometry":{"type":"Point","coordinates":[-73.96233,40.77572]},"properties":{"name":"Viand Cafe"},"id":279},{"type":"Feature","geometry":{"type":"Point","coordinates":[-73.96242,40.77621]},"properties":{"name":"Nectar Coffee Shop"},"id":280},{"type":"Feature","geometry":{"type":"Point","coordinates":[-74.00307,40.72301]},"properties":{"name":"The Cupping Room"},"id":281},{"type":"Feature","geometry":{"type":"Point","coordinates":[-73.93087,40.65626]},"properties":{"name":"Mcdonald'S"},"id":282},{"type":"Feature","geometry":{"type":"Point","coordinates":[-73.98669,40.73646]},"properties":{"name":"Pete'S Tavern"},"id":283},{"type":"Feature","geometry":{"type":"Point","coordinates":[-73.75661,40.74834]},"properties":{"name":"Gino'S Pizzeria"},"id":284},{"type":"Feature","geometry":{"type":"Point","coordinates":[-74.002,40.72859]},"properties":{"name":"Villa Mosconi Restaurant"},"id":285},{"type":"Feature","geometry":{"type":"Point","coordinates":[-74.00755,40.70776]},"properties":{"name":"Jim Brady'S Restaurant"},"id":286},{"type":"Feature","geometry":{"type":"Point","coordinates":[-73.90356,40.87834]},"properties":{"name":"P & K'S Grill"},"id":287},{"type":"Feature","geometry":{"type":"Point","coordinates":[-73.90305,40.88125]},"properties":{"name":"Mcdonald'S"},"id":288},{"type":"Feature","geometry":{"type":"Point","coordinates":[-73.93955,40.84202]},"properties":{"name":"Reme Restaurant"},"id":289},{"type":"Feature","geometry":{"type":"Point","coordinates":[-73.95983,40.77984]},"properties":{"name":"The New Amity Restaurant"},"id":290},{"type":"Feature","geometry":{"type":"Point","coordinates":[-74.00041,40.73158]},"properties":{"name":"Volare Restaurant"},"id":291},{"type":"Feature","geometry":{"type":"Point","coordinates":[-73.97213,40.75288]},"properties":{"name":"Sparks Steak House"},"id":292},{"type":"Feature","geometry":{"type":"Point","coordinates":[-73.80795,40.71516]},"properties":{"name":"The Dart Inn"},"id":293},{"type":"Feature","geometry":{"type":"Point","coordinates":[-73.9512,40.7166]},"properties":{"name":"Bamonte'S Restaurant"},"id":294},{"type":"Feature","geometry":{"type":"Point","coordinates":[-73.99968,40.75431]},"properties":{"name":"Mcdonald'S"},"id":295},{"type":"Feature","geometry":{"type":"Point","coordinates":[-73.84567,40.78235]},"properties":{"name":"Pizza Town"},"id":296},{"type":"Feature","geometry":{"type":"Point","coordinates":[-73.8672,40.89775]},"properties":{"name":"John Mulligan'S Fireside Pub"},"id":297},{"type":"Feature","geometry":{"type":"Point","coordinates":[-73.75925,40.76157]},"properties":{"name":"Burger King"},"id":298},{"type":"Feature","geometry":{"type":"Point","coordinates":[-74.00947,40.72584]},"properties":{"name":"Ear Inn"},"id":299},{"type":"Feature","geometry":{"type":"Point","coordinates":[-73.89707,40.75439]},"properties":{"name":"Burger King"},"id":300},{"type":"Feature","geometry":{"type":"Point","coordinates":[-73.82067,40.76474]},"properties":{"name":"Burger King"},"id":301},{"type":"Feature","geometry":{"type":"Point","coordinates":[-73.9776,40.77959]},"properties":{"name":"Mughlai Restaurant"},"id":302},{"type":"Feature","geometry":{"type":"Point","coordinates":[-73.95815,40.71774]},"properties":{"name":"Greenpoint Tavern"},"id":303},{"type":"Feature","geometry":{"type":"Point","coordinates":[-74.16807,40.55955]},"properties":{"name":"Mcdonald'S"},"id":304},{"type":"Feature","geometry":{"type":"Point","coordinates":[-73.92264,40.70101]},"properties":{"name":"Tony'S Pizzeria"},"id":305},{"type":"Feature","geometry":{"type":"Point","coordinates":[-73.97888,40.74917]},"properties":{"name":"Rossini'S"},"id":306},{"type":"Feature","geometry":{"type":"Point","coordinates":[-73.90726,40.76011]},"properties":{"name":"Pat'S Stationary"},"id":307},{"type":"Feature","geometry":{"type":"Point","coordinates":[-73.96408,40.77413]},"properties":{"name":"Three Guy'S Restaurant"},"id":308},{"type":"Feature","geometry":{"type":"Point","coordinates":[-73.95741,40.77012]},"properties":{"name":"Cucina Vivolo"},"id":309},{"type":"Feature","geometry":{"type":"Point","coordinates":[-73.98668,40.73756]},"properties":{"name":"The Players Club"},"id":310},{"type":"Feature","geometry":{"type":"Point","coordinates":[-74.00075,40.72876]},"properties":{"name":"Cafe Espanol"},"id":311},{"type":"Feature","geometry":{"type":"Point","coordinates":[-73.73109,40.76033]},"properties":{"name":"Tjk Cafe & Restaurant"},"id":312},{"type":"Feature","geometry":{"type":"Point","coordinates":[-73.9705,40.75523]},"properties":{"name":"Smith & Wollensky"},"id":313},{"type":"Feature","geometry":{"type":"Point","coordinates":[-73.80232,40.78075]},"properties":{"name":"Mcdonald'S"},"id":314},{"type":"Feature","geometry":{"type":"Point","coordinates":[-74.00058,40.7302]},"properties":{"name":"Olive Tree Cafe & Comedy Cellar"},"id":315},{"type":"Feature","geometry":{"type":"Point","coordinates":[-74.14698,40.62518]},"properties":{"name":"Perkins Family Restaurant & Bakery"},"id":316},{"type":"Feature","geometry":{"type":"Point","coordinates":[-73.70074,40.73896]},"properties":{"name":"Burger King"},"id":317},{"type":"Feature","geometry":{"type":"Point","coordinates":[-73.91951,40.65276]},"properties":{"name":"Burger King"},"id":318},{"type":"Feature","geometry":{"type":"Point","coordinates":[-73.95117,40.77731]},"properties":{"name":"Tokubei 86"},"id":319},{"type":"Feature","geometry":{"type":"Point","coordinates":[-73.94913,40.74458]},"properties":{"name":"Manducatis"},"id":320},{"type":"Feature","geometry":{"type":"Point","coordinates":[-73.7927,40.77021]},"properties":{"name":"Divers Cove"},"id":321},{"type":"Feature","geometry":{"type":"Point","coordinates":[-73.85223,40.71091]},"properties":{"name":"Sizzler"},"id":322},{"type":"Feature","geometry":{"type":"Point","coordinates":[-73.96124,40.63519]},"properties":{"name":"Mama Lucia"},"id":323},{"type":"Feature","geometry":{"type":"Point","coordinates":[-73.98622,40.73509]},"properties":{"name":"Mariella Pizza"},"id":324},{"type":"Feature","geometry":{"type":"Point","coordinates":[-73.9833,40.76754]},"properties":{"name":"Coliseum Bar Restaurant"},"id":325},{"type":"Feature","geometry":{"type":"Point","coordinates":[-73.79015,40.76969]},"properties":{"name":"Vinny'S Pizza"},"id":326},{"type":"Feature","geometry":{"type":"Point","coordinates":[-73.96338,40.62517]},"properties":{"name":"Kosher Delight"},"id":327},{"type":"Feature","geometry":{"type":"Point","coordinates":[-73.99283,40.75886]},"properties":{"name":"West Bank Cafe"},"id":328},{"type":"Feature","geometry":{"type":"Point","coordinates":[-73.97223,40.75807]},"properties":{"name":"The Four Seasons"},"id":329},{"type":"Feature","geometry":{"type":"Point","coordinates":[-73.73443,40.77236]},"properties":{"name":"La Baraka Restaurant"},"id":330},{"type":"Feature","geometry":{"type":"Point","coordinates":[-73.98486,40.63139]},"properties":{"name":"Dairy Luncheonette"},"id":331},{"type":"Feature","geometry":{"type":"Point","coordinates":[-73.98281,40.71508]},"properties":{"name":"Zafi'S Luncheonette"},"id":332},{"type":"Feature","geometry":{"type":"Point","coordinates":[-73.97886,40.61097]},"properties":{"name":"La Palina Restaurant"},"id":333},{"type":"Feature","geometry":{"type":"Point","coordinates":[-74.1321,40.61266]},"properties":{"name":"Schaffer'S Tavern"},"id":334},{"type":"Feature","geometry":{"type":"Point","coordinates":[-74.00529,40.73303]},"properties":{"name":"Ty'S"},"id":335},{"type":"Feature","geometry":{"type":"Point","coordinates":[-73.73631,40.767]},"properties":{"name":"Aunt Bella'S Rest Of Little Neck"},"id":336},{"type":"Feature","geometry":{"type":"Point","coordinates":[-73.93214,40.60947]},"properties":{"name":"Mariner Inn"},"id":337},{"type":"Feature","geometry":{"type":"Point","coordinates":[-74.12355,40.62153]},"properties":{"name":"Exclusive Catering"},"id":338},{"type":"Feature","geometry":{"type":"Point","coordinates":[-73.78421,40.75776]},"properties":{"name":"North Shore Diner"},"id":339},{"type":"Feature","geometry":{"type":"Point","coordinates":[-74.02827,40.62952]},"properties":{"name":"Green House Cafe"},"id":340},{"type":"Feature","geometry":{"type":"Point","coordinates":[-73.8234,40.82768]},"properties":{"name":"Mcdonald'S"},"id":341},{"type":"Feature","geometry":{"type":"Point","coordinates":[-73.95837,40.74203]},"properties":{"name":"Water Front Crab House"},"id":342},{"type":"Feature","geometry":{"type":"Point","coordinates":[-74.00602,40.73727]},"properties":{"name":"La Ripaille Restaurant"},"id":343},{"type":"Feature","geometry":{"type":"Point","coordinates":[-74.14085,40.54411]},"properties":{"name":"Marina Cafe"},"id":344},{"type":"Feature","geometry":{"type":"Point","coordinates":[-73.95888,40.77456]},"properties":{"name":"Don Filippo Restaurant"},"id":345},{"type":"Feature","geometry":{"type":"Point","coordinates":[-73.86644,40.73194]},"properties":{"name":"Burger King"},"id":346},{"type":"Feature","geometry":{"type":"Point","coordinates":[-73.92456,40.74418]},"properties":{"name":"Dazies Restaurant"},"id":347},{"type":"Feature","geometry":{"type":"Point","coordinates":[-73.89311,40.75456]},"properties":{"name":"Triestes Restaurant"},"id":348},{"type":"Feature","geometry":{"type":"Point","coordinates":[-73.92407,40.76109]},"properties":{"name":"Omonia Cafe"},"id":349},{"type":"Feature","geometry":{"type":"Point","coordinates":[-73.97827,40.7624]},"properties":{"name":"Murals On 54/Randolphs'S"},"id":350},{"type":"Feature","geometry":{"type":"Point","coordinates":[-73.93126,40.59802]},"properties":{"name":"Veterans Of Foreign Wars Post #107 Canteen"},"id":351},{"type":"Feature","geometry":{"type":"Point","coordinates":[-73.99056,40.74972]},"properties":{"name":"Caruso Pizza #2"},"id":352},{"type":"Feature","geometry":{"type":"Point","coordinates":[-73.93361,40.66948]},"properties":{"name":"Tropical House Baking Co."},"id":353},{"type":"Feature","geometry":{"type":"Point","coordinates":[-73.78057,40.66794]},"properties":{"name":"Burger King"},"id":354},{"type":"Feature","geometry":{"type":"Point","coordinates":[-73.81286,40.79311]},"properties":{"name":"Clinton Restaurant"},"id":355},{"type":"Feature","geometry":{"type":"Point","coordinates":[-73.95853,40.76691]},"properties":{"name":"Shabu-Shabu 70 Restaurant"},"id":356},{"type":"Feature","geometry":{"type":"Point","coordinates":[-73.87575,40.82944]},"properties":{"name":"Yankee Jz Pizza"},"id":357},{"type":"Feature","geometry":{"type":"Point","coordinates":[-74.09864,40.5943]},"properties":{"name":"Chen'S Chinese"},"id":358},{"type":"Feature","geometry":{"type":"Point","coordinates":[-73.99354,40.74749]},"properties":{"name":"The Greek Corner"},"id":359},{"type":"Feature","geometry":{"type":"Point","coordinates":[-73.97328,40.7588]},"properties":{"name":"Racquet & Tennis Club"},"id":360},{"type":"Feature","geometry":{"type":"Point","coordinates":[-74.03169,40.63745]},"properties":{"name":"Casa Pepe"},"id":361},{"type":"Feature","geometry":{"type":"Point","coordinates":[-73.97831,40.76323]},"properties":{"name":"Astro Restaurant"},"id":362},{"type":"Feature","geometry":{"type":"Point","coordinates":[-74.16907,40.55898]},"properties":{"name":"Golden Dove Diner"},"id":363},{"type":"Feature","geometry":{"type":"Point","coordinates":[-74.00186,40.72888]},"properties":{"name":"Caffe Dante"},"id":364},{"type":"Feature","geometry":{"type":"Point","coordinates":[-73.97771,40.64334]},"properties":{"name":"Korner Pizzeria"},"id":365},{"type":"Feature","geometry":{"type":"Point","coordinates":[-73.99218,40.6997]},"properties":{"name":"Henry'S End"},"id":366},{"type":"Feature","geometry":{"type":"Point","coordinates":[-74.00624,40.73975]},"properties":{"name":"Souen Restaurant"},"id":367},{"type":"Feature","geometry":{"type":"Point","coordinates":[-73.98054,40.74693]},"properties":{"name":"Villa Berulia"},"id":368},{"type":"Feature","geometry":{"type":"Point","coordinates":[-73.98408,40.76289]},"properties":{"name":"Victor'S Cafe"},"id":369},{"type":"Feature","geometry":{"type":"Point","coordinates":[-74.02824,40.63097]},"properties":{"name":"Petes Pizzeria & Restaurant"},"id":370},{"type":"Feature","geometry":{"type":"Point","coordinates":[-73.98646,40.75072]},"properties":{"name":"Keens Steakhouse"},"id":371},{"type":"Feature","geometry":{"type":"Point","coordinates":[-73.97753,40.74597]},"properties":{"name":"Bar 515"},"id":372},{"type":"Feature","geometry":{"type":"Point","coordinates":[-73.8925,40.74857]},"properties":{"name":"Ready Penny Inn"},"id":373},{"type":"Feature","geometry":{"type":"Point","coordinates":[-73.99915,40.72973]},"properties":{"name":"Il Mulino"},"id":374},{"type":"Feature","geometry":{"type":"Point","coordinates":[-73.96512,40.76034]},"properties":{"name":"Felidia Restaurant"},"id":375},{"type":"Feature","geometry":{"type":"Point","coordinates":[-73.92167,40.64472]},"properties":{"name":"Mcdonald'S"},"id":376},{"type":"Feature","geometry":{"type":"Point","coordinates":[-73.99935,40.72863]},"properties":{"name":"The Malt House"},"id":377},{"type":"Feature","geometry":{"type":"Point","coordinates":[-73.98125,40.77288]},"properties":{"name":"Shun Lee"},"id":378},{"type":"Feature","geometry":{"type":"Point","coordinates":[-73.90401,40.88036]},"properties":{"name":"Ihop"},"id":379},{"type":"Feature","geometry":{"type":"Point","coordinates":[-74.03182,40.62062]},"properties":{"name":"Bridgeview Diner"},"id":380},{"type":"Feature","geometry":{"type":"Point","coordinates":[-73.89407,40.72698]},"properties":{"name":"Burke'S Pub"},"id":381},{"type":"Feature","geometry":{"type":"Point","coordinates":[-73.88434,40.73327]},"properties":{"name":"Hill Tap Tavern"},"id":382},{"type":"Feature","geometry":{"type":"Point","coordinates":[-73.98653,40.7607]},"properties":{"name":"Pongsri Thai Restaurant"},"id":383},{"type":"Feature","geometry":{"type":"Point","coordinates":[-73.96729,40.75702]},"properties":{"name":"Primavera Pizza & Pasta"},"id":384},{"type":"Feature","geometry":{"type":"Point","coordinates":[-73.78309,40.83747]},"properties":{"name":"Tony'S Pier Restaurant"},"id":385},{"type":"Feature","geometry":{"type":"Point","coordinates":[-73.95286,40.77684]},"properties":{"name":"Elio'S"},"id":386},{"type":"Feature","geometry":{"type":"Point","coordinates":[-73.83218,40.8471]},"properties":{"name":"Quality Cafe & Restaurant"},"id":387},{"type":"Feature","geometry":{"type":"Point","coordinates":[-73.92549,40.59284]},"properties":{"name":"Victoria Pizza"},"id":388},{"type":"Feature","geometry":{"type":"Point","coordinates":[-73.99496,40.74964]},"properties":{"name":"Molly Wee Pub"},"id":389},{"type":"Feature","geometry":{"type":"Point","coordinates":[-73.96865,40.75518]},"properties":{"name":"La Mediterranee Restaurant"},"id":390},{"type":"Feature","geometry":{"type":"Point","coordinates":[-73.99566,40.74872]},"properties":{"name":"Kasteli Ii"},"id":391},{"type":"Feature","geometry":{"type":"Point","coordinates":[-73.91535,40.60873]},"properties":{"name":"El Caribe"},"id":392},{"type":"Feature","geometry":{"type":"Point","coordinates":[-74.00197,40.726]},"properties":{"name":"Omen Japanese Cuisine"},"id":393},{"type":"Feature","geometry":{"type":"Point","coordinates":[-73.81228,40.72754]},"properties":{"name":"Mcdonald'S"},"id":394},{"type":"Feature","geometry":{"type":"Point","coordinates":[-73.99179,40.69139]},"properties":{"name":"Mcdonald'S"},"id":395},{"type":"Feature","geometry":{"type":"Point","coordinates":[-73.96608,40.76028]},"properties":{"name":"Bar Vetro"},"id":396},{"type":"Feature","geometry":{"type":"Point","coordinates":[-73.98251,40.76262]},"properties":{"name":"Rosie O'Grady Restaurant"},"id":397},{"type":"Feature","geometry":{"type":"Point","coordinates":[-73.80709,40.6988]},"properties":{"name":"Europa Go-Go Dancing"},"id":398},{"type":"Feature","geometry":{"type":"Point","coordinates":[-73.99821,40.71808]},"properties":{"name":"Casa Bella"},"id":399},{"type":"Feature","geometry":{"type":"Point","coordinates":[-74.00958,40.71464]},"properties":{"name":"Raccoon Lodge"},"id":400},{"type":"Feature","geometry":{"type":"Point","coordinates":[-73.98833,40.76345]},"properties":{"name":"Chez Napolean"},"id":401},{"type":"Feature","geometry":{"type":"Point","coordinates":[-73.95509,40.72064]},"properties":{"name":"Turkey'S Nest Tavern"},"id":402},{"type":"Feature","geometry":{"type":"Point","coordinates":[-73.85075,40.83207]},"properties":{"name":"Sabrosura Restaurant"},"id":403},{"type":"Feature","geometry":{"type":"Point","coordinates":[-73.85204,40.66668]},"properties":{"name":"La Villa De Pizza & Restaurant"},"id":404},{"type":"Feature","geometry":{"type":"Point","coordinates":[-73.84263,40.68089]},"properties":{"name":"Ozone Pizzeria"},"id":405},{"type":"Feature","geometry":{"type":"Point","coordinates":[-73.91359,40.75671]},"properties":{"name":"Ponticello Restaurant"},"id":406},{"type":"Feature","geometry":{"type":"Point","coordinates":[-73.96643,40.76417]},"properties":{"name":"Agra Restaurant"},"id":407},{"type":"Feature","geometry":{"type":"Point","coordinates":[-73.98138,40.76306]},"properties":{"name":"Lindy'S"},"id":408},{"type":"Feature","geometry":{"type":"Point","coordinates":[-73.94785,40.77548]},"properties":{"name":"Arturo'S"},"id":409},{"type":"Feature","geometry":{"type":"Point","coordinates":[-73.95008,40.80641]},"properties":{"name":"Paris Blues"},"id":410},{"type":"Feature","geometry":{"type":"Point","coordinates":[-73.9978,40.73532]},"properties":{"name":"Gene'S Resturant"},"id":411},{"type":"Feature","geometry":{"type":"Point","coordinates":[-73.93672,40.58428]},"properties":{"name":"Maria Ristorante"},"id":412},{"type":"Feature","geometry":{"type":"Point","coordinates":[-73.99341,40.73]},"properties":{"name":"Cozy Soup & Burger"},"id":413},{"type":"Feature","geometry":{"type":"Point","coordinates":[-73.74879,40.72714]},"properties":{"name":"Neron'S Pizza"},"id":414},{"type":"Feature","geometry":{"type":"Point","coordinates":[-73.9978,40.61189]},"properties":{"name":"Villa Fiorita"},"id":415},{"type":"Feature","geometry":{"type":"Point","coordinates":[-74.00659,40.60999]},"properties":{"name":"Vegas Diner"},"id":416},{"type":"Feature","geometry":{"type":"Point","coordinates":[-73.84037,40.68332]},"properties":{"name":"Moms Luncheonette"},"id":417},{"type":"Feature","geometry":{"type":"Point","coordinates":[-73.98018,40.78013]},"properties":{"name":"Candle Bar"},"id":418},{"type":"Feature","geometry":{"type":"Point","coordinates":[-73.9559,40.77815]},"properties":{"name":"Tevere 84"},"id":419},{"type":"Feature","geometry":{"type":"Point","coordinates":[-73.99056,40.74972]},"properties":{"name":"Haagen-Dazs"},"id":420},{"type":"Feature","geometry":{"type":"Point","coordinates":[-73.78287,40.75753]},"properties":{"name":"Fontana Famous Pizza & Gyro"},"id":421},{"type":"Feature","geometry":{"type":"Point","coordinates":[-92.73084,41.74615]},"properties":{"name":"Charlie'S Mom Chinese Restaurant"},"id":422},{"type":"Feature","geometry":{"type":"Point","coordinates":[-73.95539,40.77237]},"properties":{"name":"Lusardi'S Restaurant"},"id":423},{"type":"Feature","geometry":{"type":"Point","coordinates":[-74.10692,40.63028]},"properties":{"name":"King'S Arms Restaurant"},"id":424},{"type":"Feature","geometry":{"type":"Point","coordinates":[-73.8398,40.71912]},"properties":{"name":"Portofino"},"id":425},{"type":"Feature","geometry":{"type":"Point","coordinates":[-74.00064,40.73091]},"properties":{"name":"Blue Note Jazz"},"id":426},{"type":"Feature","geometry":{"type":"Point","coordinates":[-73.9724,40.74034]},"properties":{"name":"The Water Club"},"id":427},{"type":"Feature","geometry":{"type":"Point","coordinates":[-73.99571,40.68219]},"properties":{"name":"Marco Polo Ristorante"},"id":428},{"type":"Feature","geometry":{"type":"Point","coordinates":[-74.00234,40.73336]},"properties":{"name":"Manhattan Monster"},"id":429},{"type":"Feature","geometry":{"type":"Point","coordinates":[-73.97911,40.78348]},"properties":{"name":"American Museum Of Natural History Food Court"},"id":430},{"type":"Feature","geometry":{"type":"Point","coordinates":[-84.1899,39.76427]},"properties":{"name":"War Memorial Ice Skating Rink"},"id":431},{"type":"Feature","geometry":{"type":"Point","coordinates":[-74.00176,40.72825]},"properties":{"name":"Chez Jaqueline"},"id":432},{"type":"Feature","geometry":{"type":"Point","coordinates":[-73.99463,40.69004]},"properties":{"name":"Tripoli Restaurant"},"id":433},{"type":"Feature","geometry":{"type":"Point","coordinates":[-73.96122,40.76848]},"properties":{"name":"Pj Bernstein Deli & Restaurant"},"id":434},{"type":"Feature","geometry":{"type":"Point","coordinates":[-73.98,40.76592]},"properties":{"name":"Pj Carney'S"},"id":435},{"type":"Feature","geometry":{"type":"Point","coordinates":[-74.0001,40.72767]},"properties":{"name":"Tomoe Sushi"},"id":436},{"type":"Feature","geometry":{"type":"Point","coordinates":[-74.37317,40.44048]},"properties":{"name":"Water'S Edge Club"},"id":437},{"type":"Feature","geometry":{"type":"Point","coordinates":[-73.95926,40.80886]},"properties":{"name":"Amsterdam Restaurant & Tapas Lounge"},"id":438},{"type":"Feature","geometry":{"type":"Point","coordinates":[-73.79064,40.85757]},"properties":{"name":"Jp'S Waterside Restaurant"},"id":439},{"type":"Feature","geometry":{"type":"Point","coordinates":[-73.83733,40.57985]},"properties":{"name":"Rogers Irish Tavern"},"id":440},{"type":"Feature","geometry":{"type":"Point","coordinates":[-73.86578,40.85447]},"properties":{"name":"John & Joe Pizzeria & Restaurant"},"id":441},{"type":"Feature","geometry":{"type":"Point","coordinates":[-73.88034,40.70173]},"properties":{"name":"Mcdonald'S"},"id":442},{"type":"Feature","geometry":{"type":"Point","coordinates":[-73.98114,40.77887]},"properties":{"name":"Utopia Restaurant"},"id":443},{"type":"Feature","geometry":{"type":"Point","coordinates":[-74.20781,40.54277]},"properties":{"name":"Sunset Pizzeria"},"id":444},{"type":"Feature","geometry":{"type":"Point","coordinates":[-73.80472,40.73285]},"properties":{"name":"Napoli Pizza"},"id":445},{"type":"Feature","geometry":{"type":"Point","coordinates":[-73.97748,40.74614]},"properties":{"name":"Jackson Hole"},"id":446},{"type":"Feature","geometry":{"type":"Point","coordinates":[-74.02702,40.63258]},"properties":{"name":"Vesuvio Restaurant & Pizza"},"id":447},{"type":"Feature","geometry":{"type":"Point","coordinates":[-73.74163,40.67674]},"properties":{"name":"Western Bakery"},"id":448},{"type":"Feature","geometry":{"type":"Point","coordinates":[-73.97161,40.75115]},"properties":{"name":"Johns Cafe & Resturant"},"id":449},{"type":"Feature","geometry":{"type":"Point","coordinates":[-74.00141,40.73182]},"properties":{"name":"Karavas Place"},"id":450},{"type":"Feature","geometry":{"type":"Point","coordinates":[-73.98317,40.7774]},"properties":{"name":"Cafe Luxembourg"},"id":451},{"type":"Feature","geometry":{"type":"Point","coordinates":[-73.907,40.70908]},"properties":{"name":"Windjammers Bar"},"id":452},{"type":"Feature","geometry":{"type":"Point","coordinates":[-73.81536,40.73949]},"properties":{"name":"Dunkin' Donuts/Baskin' Robbins"},"id":453},{"type":"Feature","geometry":{"type":"Point","coordinates":[-73.96897,40.79797]},"properties":{"name":"Broadway Restaurant"},"id":454},{"type":"Feature","geometry":{"type":"Point","coordinates":[-73.941,40.79805]},"properties":{"name":"Cuchifrito"},"id":455},{"type":"Feature","geometry":{"type":"Point","coordinates":[-73.8455,40.72075]},"properties":{"name":"Narita Japanese Restaurant"},"id":456},{"type":"Feature","geometry":{"type":"Point","coordinates":[-73.99403,40.68118]},"properties":{"name":"Red Rose"},"id":457},{"type":"Feature","geometry":{"type":"Point","coordinates":[-74.00142,40.74088]},"properties":{"name":"Mary Ann'S"},"id":458},{"type":"Feature","geometry":{"type":"Point","coordinates":[-73.89688,40.81668]},"properties":{"name":"Tony'S Pizza"},"id":459},{"type":"Feature","geometry":{"type":"Point","coordinates":[-73.84938,40.6882]},"properties":{"name":"Port O' Calls"},"id":460},{"type":"Feature","geometry":{"type":"Point","coordinates":[-73.97257,40.59728]},"properties":{"name":"Fiorentino Ristorante"},"id":461},{"type":"Feature","geometry":{"type":"Point","coordinates":[-73.9932,40.73218]},"properties":{"name":"Il Cantinori Restauraunt"},"id":462},{"type":"Feature","geometry":{"type":"Point","coordinates":[-73.9897,40.7517]},"properties":{"name":"Andrews Coffee Shop"},"id":463},{"type":"Feature","geometry":{"type":"Point","coordinates":[-73.85144,40.69394]},"properties":{"name":"Mike'S Pub"},"id":464},{"type":"Feature","geometry":{"type":"Point","coordinates":[-73.90093,40.71377]},"properties":{"name":"The Clubhouse"},"id":465},{"type":"Feature","geometry":{"type":"Point","coordinates":[-73.98796,40.74785]},"properties":{"name":"Kang Suh Korean Restaurant"},"id":466},{"type":"Feature","geometry":{"type":"Point","coordinates":[-73.89351,40.72729]},"properties":{"name":"Fame Diner"},"id":467},{"type":"Feature","geometry":{"type":"Point","coordinates":[-73.93825,40.58343]},"properties":{"name":"Knights Of Baron Dekalb"},"id":468},{"type":"Feature","geometry":{"type":"Point","coordinates":[-74.10927,40.63793]},"properties":{"name":"Union Hall"},"id":469},{"type":"Feature","geometry":{"type":"Point","coordinates":[-73.96531,40.60642]},"properties":{"name":"Kosher Hut Of Brooklyn"},"id":470},{"type":"Feature","geometry":{"type":"Point","coordinates":[-73.9993,40.72839]},"properties":{"name":"Terra Blues"},"id":471},{"type":"Feature","geometry":{"type":"Point","coordinates":[-73.97579,40.78607]},"properties":{"name":"Caesar'S Palace"},"id":472},{"type":"Feature","geometry":{"type":"Point","coordinates":[-73.88065,40.74797]},"properties":{"name":"Flamingo"},"id":473},{"type":"Feature","geometry":{"type":"Point","coordinates":[-74.00109,40.72958]},"properties":{"name":"Monte'S"},"id":474},{"type":"Feature","geometry":{"type":"Point","coordinates":[-73.99382,40.73409]},"properties":{"name":"Gotham Bar & Grill"},"id":475},{"type":"Feature","geometry":{"type":"Point","coordinates":[-73.86765,40.72214]},"properties":{"name":"London Lennies"},"id":476},{"type":"Feature","geometry":{"type":"Point","coordinates":[-83.88423,30.69285]},"properties":{"name":"Dunkin' Donuts"},"id":477},{"type":"Feature","geometry":{"type":"Point","coordinates":[-73.99016,40.75262]},"properties":{"name":"Delmonico'S Kitchen"},"id":478},{"type":"Feature","geometry":{"type":"Point","coordinates":[-73.97737,40.78393]},"properties":{"name":"Mcaleer'S Pub"},"id":479},{"type":"Feature","geometry":{"type":"Point","coordinates":[-73.98884,40.72968]},"properties":{"name":"Hasaki Restaurant"},"id":480},{"type":"Feature","geometry":{"type":"Point","coordinates":[-73.95926,40.77115]},"properties":{"name":"Mezzaluna"},"id":481},{"type":"Feature","geometry":{"type":"Point","coordinates":[-73.98027,40.73489]},"properties":{"name":"Cooper Town Diner"},"id":482},{"type":"Feature","geometry":{"type":"Point","coordinates":[-73.97031,40.75751]},"properties":{"name":"Restuarant Nippon"},"id":483},{"type":"Feature","geometry":{"type":"Point","coordinates":[-73.86754,40.89778]},"properties":{"name":"Aqueduct North"},"id":484},{"type":"Feature","geometry":{"type":"Point","coordinates":[-74.00824,40.71485]},"properties":{"name":"Imperial Coffee House"},"id":485},{"type":"Feature","geometry":{"type":"Point","coordinates":[-73.98527,40.75891]},"properties":{"name":"Mcdonald'S"},"id":486},{"type":"Feature","geometry":{"type":"Point","coordinates":[-73.96167,40.77737]},"properties":{"name":"E.A.T. Cafe"},"id":487},{"type":"Feature","geometry":{"type":"Point","coordinates":[-73.88659,40.7723]},"properties":{"name":"Yankee Clipper"},"id":488},{"type":"Feature","geometry":{"type":"Point","coordinates":[-73.89824,40.86163]},"properties":{"name":"Cuchifritos"},"id":489},{"type":"Feature","geometry":{"type":"Point","coordinates":[-74.00291,40.63125]},"properties":{"name":"Rex Manor"},"id":490},{"type":"Feature","geometry":{"type":"Point","coordinates":[-73.97775,40.75106]},"properties":{"name":"Club 101"},"id":491},{"type":"Feature","geometry":{"type":"Point","coordinates":[-73.9015,40.8851]},"properties":{"name":"Riverdale Diner"},"id":492},{"type":"Feature","geometry":{"type":"Point","coordinates":[-73.87813,40.71264]},"properties":{"name":"Carlos Pizza"},"id":493},{"type":"Feature","geometry":{"type":"Point","coordinates":[-73.99918,40.72837]},"properties":{"name":"The Bitter End"},"id":494},{"type":"Feature","geometry":{"type":"Point","coordinates":[-73.9882,40.76414]},"properties":{"name":"Arriba Arriba"},"id":495},{"type":"Feature","geometry":{"type":"Point","coordinates":[-73.97262,40.6779]},"properties":{"name":"Geido Restaurant"},"id":496},{"type":"Feature","geometry":{"type":"Point","coordinates":[-73.97437,40.788]},"properties":{"name":"Barney Greengrass"},"id":497},{"type":"Feature","geometry":{"type":"Point","coordinates":[-73.9792,40.76605]},"properties":{"name":"Petrossian Restauraunt"},"id":498},{"type":"Feature","geometry":{"type":"Point","coordinates":[-73.80112,40.71283]},"properties":{"name":"Annam Braham Restaurant"},"id":499},{"type":"Feature","geometry":{"type":"Point","coordinates":[-73.98379,40.76268]},"properties":{"name":"Supernova-Novotel Hotel"},"id":500},{"type":"Feature","geometry":{"type":"Point","coordinates":[-73.99795,40.6914]},"properties":{"name":"Montero Bar & Grill"},"id":501},{"type":"Feature","geometry":{"type":"Point","coordinates":[-73.88815,40.70115]},"properties":{"name":"Pisa Pizzeria"},"id":502},{"type":"Feature","geometry":{"type":"Point","coordinates":[-73.98203,40.57536]},"properties":{"name":"Pete'S Clam Stop"},"id":503},{"type":"Feature","geometry":{"type":"Point","coordinates":[-73.9992,40.72866]},"properties":{"name":"Porto Bello Restaurant"},"id":504},{"type":"Feature","geometry":{"type":"Point","coordinates":[-74.00156,40.73194]},"properties":{"name":"Burrito Loco"},"id":505},{"type":"Feature","geometry":{"type":"Point","coordinates":[-73.99394,40.74683]},"properties":{"name":"Fit Cafeteria (Building A)"},"id":506},{"type":"Feature","geometry":{"type":"Point","coordinates":[-73.9525,40.74842]},"properties":{"name":"Riverhead Gentlemen'S Club"},"id":507},{"type":"Feature","geometry":{"type":"Point","coordinates":[-73.98126,40.66701]},"properties":{"name":"Smiling Pizza"},"id":508},{"type":"Feature","geometry":{"type":"Point","coordinates":[-73.96433,40.80542]},"properties":{"name":"Symposium Greek Restaurant"},"id":509},{"type":"Feature","geometry":{"type":"Point","coordinates":[-73.98646,40.72667]},"properties":{"name":"Gandhi"},"id":510},{"type":"Feature","geometry":{"type":"Point","coordinates":[-73.94131,40.72233]},"properties":{"name":"Nina'S Restaurant Pizzeria"},"id":511},{"type":"Feature","geometry":{"type":"Point","coordinates":[-73.98928,40.72983]},"properties":{"name":"Village Yokocho"},"id":512},{"type":"Feature","geometry":{"type":"Point","coordinates":[-73.99322,40.69741]},"properties":{"name":"Clark'S Restaurant"},"id":513},{"type":"Feature","geometry":{"type":"Point","coordinates":[-73.97237,40.75062]},"properties":{"name":"Pietros"},"id":514},{"type":"Feature","geometry":{"type":"Point","coordinates":[-73.98376,40.72602]},"properties":{"name":"Miss Lily'S 7A"},"id":515},{"type":"Feature","geometry":{"type":"Point","coordinates":[-73.99507,40.72577]},"properties":{"name":"Noho Star Restaurant"},"id":516},{"type":"Feature","geometry":{"type":"Point","coordinates":[-73.9627,40.75897]},"properties":{"name":"Rosa Mexicano"},"id":517},{"type":"Feature","geometry":{"type":"Point","coordinates":[-74.11078,40.62956]},"properties":{"name":"Duffy'S"},"id":518},{"type":"Feature","geometry":{"type":"Point","coordinates":[-74.01269,40.70953]},"properties":{"name":"O'Hara'S"},"id":519},{"type":"Feature","geometry":{"type":"Point","coordinates":[-74.14681,40.5761]},"properties":{"name":"Latourette Golf Course"},"id":520},{"type":"Feature","geometry":{"type":"Point","coordinates":[-73.84538,40.72088]},"properties":{"name":"Uno Chicago Grill"},"id":521},{"type":"Feature","geometry":{"type":"Point","coordinates":[-74.01772,40.6152]},"properties":{"name":"Dyker Beach Golf (Grill Room)"},"id":522},{"type":"Feature","geometry":{"type":"Point","coordinates":[-73.94994,40.67141]},"properties":{"name":"Glenda'S Restaurant"},"id":523},{"type":"Feature","geometry":{"type":"Point","coordinates":[-74.00545,40.60188]},"properties":{"name":"My Father'S Place"},"id":524},{"type":"Feature","geometry":{"type":"Point","coordinates":[-73.9749,40.67568]},"properties":{"name":"Santa Fe Grill & Bar"},"id":525},{"type":"Feature","geometry":{"type":"Point","coordinates":[-73.93973,40.84169]},"properties":{"name":"Coogan'S"},"id":526},{"type":"Feature","geometry":{"type":"Point","coordinates":[-73.98362,40.72548]},"properties":{"name":"Sidewalk Bar & Restaurant"},"id":527},{"type":"Feature","geometry":{"type":"Point","coordinates":[-74.00544,40.65376]},"properties":{"name":"Mcdonald'S"},"id":528},{"type":"Feature","geometry":{"type":"Point","coordinates":[-74.00298,40.73173]},"properties":{"name":"Caffe Vivaldi"},"id":529},{"type":"Feature","geometry":{"type":"Point","coordinates":[-73.85372,40.84271]},"properties":{"name":"Castlehill Diner"},"id":530},{"type":"Feature","geometry":{"type":"Point","coordinates":[-73.81724,40.81959]},"properties":{"name":"Tommy'S Pizza"},"id":531},{"type":"Feature","geometry":{"type":"Point","coordinates":[-73.96922,40.76455]},"properties":{"name":"Regency Hotel"},"id":532},{"type":"Feature","geometry":{"type":"Point","coordinates":[-73.96522,40.75582]},"properties":{"name":"Parnell'S Pub"},"id":533},{"type":"Feature","geometry":{"type":"Point","coordinates":[-74.00421,40.65403]},"properties":{"name":"La Fe Restaurant"},"id":534},{"type":"Feature","geometry":{"type":"Point","coordinates":[-73.91471,40.83354]},"properties":{"name":"Mom'S Fried Chicken"},"id":535},{"type":"Feature","geometry":{"type":"Point","coordinates":[-73.98866,40.76944]},"properties":{"name":"Ocean Dragon Restaurant"},"id":536},{"type":"Feature","geometry":{"type":"Point","coordinates":[-73.83275,40.71497]},"properties":{"name":"Cobblestone Pub"},"id":537},{"type":"Feature","geometry":{"type":"Point","coordinates":[-73.9985,40.71764]},"properties":{"name":"Cha Cha'S Backyard Garden Bar & Cafe"},"id":538},{"type":"Feature","geometry":{"type":"Point","coordinates":[-74.03217,40.62132]},"properties":{"name":"O'Sullivan'S Pub"},"id":539},{"type":"Feature","geometry":{"type":"Point","coordinates":[-73.99739,40.7223]},"properties":{"name":"Spring St. Natural Restaurant"},"id":540},{"type":"Feature","geometry":{"type":"Point","coordinates":[-74.02634,40.62136]},"properties":{"name":"Pizza Wagon"},"id":541},{"type":"Feature","geometry":{"type":"Point","coordinates":[-73.98358,40.72819]},"properties":{"name":"Russian Turkish Baths"},"id":542},{"type":"Feature","geometry":{"type":"Point","coordinates":[-74.00797,40.73745]},"properties":{"name":"Tortilla Flats"},"id":543},{"type":"Feature","geometry":{"type":"Point","coordinates":[-73.74849,40.7684]},"properties":{"name":"Il Toscano Ristorante"},"id":544},{"type":"Feature","geometry":{"type":"Point","coordinates":[-73.95449,40.77457]},"properties":{"name":"Sistina Restaurant"},"id":545},{"type":"Feature","geometry":{"type":"Point","coordinates":[-73.76684,40.76035]},"properties":{"name":"Pier 25A Restaurant"},"id":546},{"type":"Feature","geometry":{"type":"Point","coordinates":[-73.81401,40.7868]},"properties":{"name":"Verdi Restaurant"},"id":547},{"type":"Feature","geometry":{"type":"Point","coordinates":[-73.76089,40.72045]},"properties":{"name":"Gaby'S Pizza"},"id":548},{"type":"Feature","geometry":{"type":"Point","coordinates":[-74.0025,40.73149]},"properties":{"name":"Cornelia Street Cafe"},"id":549},{"type":"Feature","geometry":{"type":"Point","coordinates":[-73.9817,40.76147]},"properties":{"name":"Le Bernardin"},"id":550},{"type":"Feature","geometry":{"type":"Point","coordinates":[-74.01223,40.70586]},"properties":{"name":"The Grotto"},"id":551},{"type":"Feature","geometry":{"type":"Point","coordinates":[-73.93146,40.67043]},"properties":{"name":"Tony'S Pizzeria"},"id":552},{"type":"Feature","geometry":{"type":"Point","coordinates":[-73.95345,40.77713]},"properties":{"name":"Brandy'S Piano Bar"},"id":553},{"type":"Feature","geometry":{"type":"Point","coordinates":[-74.12682,40.56518]},"properties":{"name":"Canlon'S Restaurant"},"id":554},{"type":"Feature","geometry":{"type":"Point","coordinates":[-74.15843,40.62661]},"properties":{"name":"Real Madrid Restaurant"},"id":555},{"type":"Feature","geometry":{"type":"Point","coordinates":[-73.97514,40.67544]},"properties":{"name":"Cousin John'S Cafe And Bakery"},"id":556},{"type":"Feature","geometry":{"type":"Point","coordinates":[-73.89827,40.88969]},"properties":{"name":"Short Stop Restaurant"},"id":557},{"type":"Feature","geometry":{"type":"Point","coordinates":[-73.97257,40.78558]},"properties":{"name":"Jackson Hole"},"id":558},{"type":"Feature","geometry":{"type":"Point","coordinates":[-73.98475,40.76311]},"properties":{"name":"Russian Samovar"},"id":559},{"type":"Feature","geometry":{"type":"Point","coordinates":[-73.82971,40.75876]},"properties":{"name":"Barone Pizza"},"id":560},{"type":"Feature","geometry":{"type":"Point","coordinates":[-73.98287,40.76281]},"properties":{"name":"Flash Dancers"},"id":561},{"type":"Feature","geometry":{"type":"Point","coordinates":[-74.16304,40.60731]},"properties":{"name":"Pizza D'Oro"},"id":562},{"type":"Feature","geometry":{"type":"Point","coordinates":[-73.98098,40.78024]},"properties":{"name":"Josie'S Restaurant"},"id":563},{"type":"Feature","geometry":{"type":"Point","coordinates":[-73.99735,40.71993]},"properties":{"name":"La Mela Restaurant"},"id":564},{"type":"Feature","geometry":{"type":"Point","coordinates":[-73.82568,40.7456]},"properties":{"name":"Phil & Sons Restaurant & Pizzeria"},"id":565},{"type":"Feature","geometry":{"type":"Point","coordinates":[-73.97747,40.75726]},"properties":{"name":"Pj Morans"},"id":566},{"type":"Feature","geometry":{"type":"Point","coordinates":[-73.78909,40.76996]},"properties":{"name":"Omega Coffee Shop"},"id":567},{"type":"Feature","geometry":{"type":"Point","coordinates":[-73.98803,40.75913]},"properties":{"name":"Frankie & Johnnies Steakhouse"},"id":568},{"type":"Feature","geometry":{"type":"Point","coordinates":[-73.98684,40.73691]},"properties":{"name":"Friend Of A Farmer"},"id":569},{"type":"Feature","geometry":{"type":"Point","coordinates":[-74.02779,40.63188]},"properties":{"name":"Sancho'S Restaurant"},"id":570},{"type":"Feature","geometry":{"type":"Point","coordinates":[-73.86966,40.75015]},"properties":{"name":"Dream Pizza"},"id":571},{"type":"Feature","geometry":{"type":"Point","coordinates":[-73.88966,40.65785]},"properties":{"name":"Mcdonald'S"},"id":572},{"type":"Feature","geometry":{"type":"Point","coordinates":[-74.0273,40.63183]},"properties":{"name":"India Passage Restaurant"},"id":573},{"type":"Feature","geometry":{"type":"Point","coordinates":[-73.86718,40.87051]},"properties":{"name":"Burger Barn Restaurant"},"id":574},{"type":"Feature","geometry":{"type":"Point","coordinates":[-73.95097,40.7236]},"properties":{"name":"Irene'S Place"},"id":575},{"type":"Feature","geometry":{"type":"Point","coordinates":[-73.98711,40.72902]},"properties":{"name":"Veselka Restaurant"},"id":576},{"type":"Feature","geometry":{"type":"Point","coordinates":[-73.83241,40.75341]},"properties":{"name":"Kanes Deli Diner"},"id":577},{"type":"Feature","geometry":{"type":"Point","coordinates":[-73.88898,40.65584]},"properties":{"name":"White Castle"},"id":578},{"type":"Feature","geometry":{"type":"Point","coordinates":[-73.95415,40.61027]},"properties":{"name":"J & R Pizza"},"id":579},{"type":"Feature","geometry":{"type":"Point","coordinates":[-73.99356,40.75851]},"properties":{"name":"Chez Josephine"},"id":580},{"type":"Feature","geometry":{"type":"Point","coordinates":[-73.98161,40.74415]},"properties":{"name":"Mishima Restaurant"},"id":581},{"type":"Feature","geometry":{"type":"Point","coordinates":[-73.71282,40.73636]},"properties":{"name":"Dunkin' Donuts/Baskin Robbins"},"id":582},{"type":"Feature","geometry":{"type":"Point","coordinates":[-73.9054,40.77306]},"properties":{"name":"Victory Sweet Shop"},"id":583},{"type":"Feature","geometry":{"type":"Point","coordinates":[-74.00903,40.63109]},"properties":{"name":"Rocco'S Calamari"},"id":584},{"type":"Feature","geometry":{"type":"Point","coordinates":[-73.99365,40.69484]},"properties":{"name":"Grand Canyon"},"id":585},{"type":"Feature","geometry":{"type":"Point","coordinates":[-74.02831,40.62943]},"properties":{"name":"Cappuccino Cafe"},"id":586},{"type":"Feature","geometry":{"type":"Point","coordinates":[-74.10131,40.59124]},"properties":{"name":"Carol'S Cafe"},"id":587},{"type":"Feature","geometry":{"type":"Point","coordinates":[-73.98589,40.73047]},"properties":{"name":"Pangea Restaurant"},"id":588},{"type":"Feature","geometry":{"type":"Point","coordinates":[-73.98635,40.75968]},"properties":{"name":"Cafe Edison"},"id":589},{"type":"Feature","geometry":{"type":"Point","coordinates":[-74.00835,40.73622]},"properties":{"name":"Automatic Slims"},"id":590},{"type":"Feature","geometry":{"type":"Point","coordinates":[-73.98385,40.72906]},"properties":{"name":"De Robertis Pastry Shop"},"id":591},{"type":"Feature","geometry":{"type":"Point","coordinates":[-73.9879,40.7293]},"properties":{"name":"Cloister Cafe"},"id":592},{"type":"Feature","geometry":{"type":"Point","coordinates":[-74.13698,40.61189]},"properties":{"name":"Dairy Palace"},"id":593},{"type":"Feature","geometry":{"type":"Point","coordinates":[-73.98049,40.67682]},"properties":{"name":"200 Fifth Avenue Restaurant & Sports Bar"},"id":594},{"type":"Feature","geometry":{"type":"Point","coordinates":[-73.96438,40.75674]},"properties":{"name":"Jimbo'S Hamburger Place"},"id":595},{"type":"Feature","geometry":{"type":"Point","coordinates":[-73.95368,40.77569]},"properties":{"name":"Va Bene"},"id":596},{"type":"Feature","geometry":{"type":"Point","coordinates":[-73.98997,40.7609]},"properties":{"name":"Lattanzi"},"id":597},{"type":"Feature","geometry":{"type":"Point","coordinates":[-73.79561,40.75835]},"properties":{"name":"Pizza Garden"},"id":598},{"type":"Feature","geometry":{"type":"Point","coordinates":[-73.95554,40.78492]},"properties":{"name":"Island"},"id":599},{"type":"Feature","geometry":{"type":"Point","coordinates":[-73.97633,40.75755]},"properties":{"name":"Sushiden"},"id":600},{"type":"Feature","geometry":{"type":"Point","coordinates":[-73.84623,40.87611]},"properties":{"name":"Eastwood Manor"},"id":601},{"type":"Feature","geometry":{"type":"Point","coordinates":[-73.91255,40.77436]},"properties":{"name":"Lefkos Pygos Cafe"},"id":602},{"type":"Feature","geometry":{"type":"Point","coordinates":[-73.99556,40.74885]},"properties":{"name":"Salumeria Beillese/ Biricchino Rest"},"id":603},{"type":"Feature","geometry":{"type":"Point","coordinates":[-73.97575,40.68729]},"properties":{"name":"Academy Restauraunt"},"id":604},{"type":"Feature","geometry":{"type":"Point","coordinates":[-73.97652,40.74525]},"properties":{"name":"Trattoria Alba"},"id":605},{"type":"Feature","geometry":{"type":"Point","coordinates":[-73.99172,40.69799]},"properties":{"name":"Park Plaza Restaurant"},"id":606},{"type":"Feature","geometry":{"type":"Point","coordinates":[-73.97723,40.74933]},"properties":{"name":"Sam'S Place"},"id":607},{"type":"Feature","geometry":{"type":"Point","coordinates":[-73.98164,40.76328]},"properties":{"name":"Ray'S Pizza"},"id":608},{"type":"Feature","geometry":{"type":"Point","coordinates":[-73.84292,40.84116]},"properties":{"name":"Ljubo'S Pizzeria"},"id":609},{"type":"Feature","geometry":{"type":"Point","coordinates":[-74.03119,40.61666]},"properties":{"name":"Hunter'S Steak & Ale House"},"id":610},{"type":"Feature","geometry":{"type":"Point","coordinates":[-74.14855,40.6248]},"properties":{"name":"Dakota Diner"},"id":611},{"type":"Feature","geometry":{"type":"Point","coordinates":[-73.9616,40.76393]},"properties":{"name":"Primola Restaurant"},"id":612},{"type":"Feature","geometry":{"type":"Point","coordinates":[-73.84217,40.87942]},"properties":{"name":"Wendy'S"},"id":613},{"type":"Feature","geometry":{"type":"Point","coordinates":[-74.16033,40.54547]},"properties":{"name":"Country Donuts"},"id":614},{"type":"Feature","geometry":{"type":"Point","coordinates":[-74.02853,40.62898]},"properties":{"name":"Sally & George'S Place"},"id":615},{"type":"Feature","geometry":{"type":"Point","coordinates":[-73.9249,40.76153]},"properties":{"name":"Doral Donuts"},"id":616},{"type":"Feature","geometry":{"type":"Point","coordinates":[-73.92377,40.747]},"properties":{"name":"Jacks Ale House"},"id":617},{"type":"Feature","geometry":{"type":"Point","coordinates":[-73.85743,40.83667]},"properties":{"name":"Venice Pizza"},"id":618},{"type":"Feature","geometry":{"type":"Point","coordinates":[-73.99976,40.71622]},"properties":{"name":"Winnie'S Bar"},"id":619},{"type":"Feature","geometry":{"type":"Point","coordinates":[-73.98211,40.66585]},"properties":{"name":"Pizza Plus"},"id":620},{"type":"Feature","geometry":{"type":"Point","coordinates":[-73.99164,40.74872]},"properties":{"name":"Niles Restaurant"},"id":621},{"type":"Feature","geometry":{"type":"Point","coordinates":[-74.15044,40.54931]},"properties":{"name":"Arirang Hibachi Steak House"},"id":622},{"type":"Feature","geometry":{"type":"Point","coordinates":[-73.75767,40.75382]},"properties":{"name":"Oakland Cafeteria/Queensborough Community College"},"id":623},{"type":"Feature","geometry":{"type":"Point","coordinates":[-73.90141,40.70031]},"properties":{"name":"Tasty'S"},"id":624},{"type":"Feature","geometry":{"type":"Point","coordinates":[-73.75767,40.75382]},"properties":{"name":"Q.B.Comm.College-Main Kitchen/Tiger Bites Pizza Section"},"id":625},{"type":"Feature","geometry":{"type":"Point","coordinates":[-73.80846,40.78693]},"properties":{"name":"Erin'S Isle"},"id":626},{"type":"Feature","geometry":{"type":"Point","coordinates":[-73.9311,40.7036]},"properties":{"name":"Tina'S Restaurant"},"id":627},{"type":"Feature","geometry":{"type":"Point","coordinates":[-74.00318,40.73344]},"properties":{"name":"Karavas Pizza N Pita"},"id":628},{"type":"Feature","geometry":{"type":"Point","coordinates":[-73.97874,40.76115]},"properties":{"name":"China Grill"},"id":629},{"type":"Feature","geometry":{"type":"Point","coordinates":[-73.99999,40.7301]},"properties":{"name":"New York University - Law School"},"id":630},{"type":"Feature","geometry":{"type":"Point","coordinates":[-73.98175,40.77636]},"properties":{"name":"Westside Restaurant"},"id":631},{"type":"Feature","geometry":{"type":"Point","coordinates":[-73.96944,40.79838]},"properties":{"name":"Sal And Carmine Pizza"},"id":632},{"type":"Feature","geometry":{"type":"Point","coordinates":[-73.97927,40.76493]},"properties":{"name":"Club Metropolitan"},"id":633},{"type":"Feature","geometry":{"type":"Point","coordinates":[-74.02391,40.62692]},"properties":{"name":"Rocco'S Pizzeria"},"id":634},{"type":"Feature","geometry":{"type":"Point","coordinates":[-73.99287,40.74076]},"properties":{"name":"Periyali"},"id":635},{"type":"Feature","geometry":{"type":"Point","coordinates":[-73.90631,40.70027]},"properties":{"name":"Sanremo Pizza"},"id":636},{"type":"Feature","geometry":{"type":"Point","coordinates":[-73.85914,40.8775]},"properties":{"name":"Frank'S Soup Bowl"},"id":637},{"type":"Feature","geometry":{"type":"Point","coordinates":[-73.91356,40.74586]},"properties":{"name":"Copper Kettle"},"id":638},{"type":"Feature","geometry":{"type":"Point","coordinates":[-73.88128,40.67922]},"properties":{"name":"White Castle"},"id":639},{"type":"Feature","geometry":{"type":"Point","coordinates":[-73.98823,40.76503]},"properties":{"name":"El Azteca Mexican Restaurant"},"id":640},{"type":"Feature","geometry":{"type":"Point","coordinates":[-73.75767,40.75382]},"properties":{"name":"Science Cafe (Queensborough  Community College)"},"id":641},{"type":"Feature","geometry":{"type":"Point","coordinates":[-74.00451,40.72366]},"properties":{"name":"Lupe'S East L.A. Kitchen"},"id":642},{"type":"Feature","geometry":{"type":"Point","coordinates":[-73.98798,40.75331]},"properties":{"name":"Arno Ristorante"},"id":643},{"type":"Feature","geometry":{"type":"Point","coordinates":[-73.96789,40.75682]},"properties":{"name":"T & G Whitney'S"},"id":644},{"type":"Feature","geometry":{"type":"Point","coordinates":[-73.99742,40.71861]},"properties":{"name":"Pellegrino'S"},"id":645},{"type":"Feature","geometry":{"type":"Point","coordinates":[-73.87113,40.82518]},"properties":{"name":"White Castle"},"id":646},{"type":"Feature","geometry":{"type":"Point","coordinates":[-73.87897,40.74835]},"properties":{"name":"La Casa Del Pollo Restaurant"},"id":647},{"type":"Feature","geometry":{"type":"Point","coordinates":[-73.76981,40.76051]},"properties":{"name":"White Castle"},"id":648},{"type":"Feature","geometry":{"type":"Point","coordinates":[-73.95735,40.77471]},"properties":{"name":"Due"},"id":649},{"type":"Feature","geometry":{"type":"Point","coordinates":[-73.99583,40.73967]},"properties":{"name":"Da Umberto Restaurant"},"id":650},{"type":"Feature","geometry":{"type":"Point","coordinates":[-73.88648,40.85887]},"properties":{"name":"White Castle"},"id":651},{"type":"Feature","geometry":{"type":"Point","coordinates":[-73.95851,40.71935]},"properties":{"name":"Teddy'S Bar And Grill"},"id":652},{"type":"Feature","geometry":{"type":"Point","coordinates":[-73.98839,40.74074]},"properties":{"name":"Live Bait Bar & Restaurant"},"id":653},{"type":"Feature","geometry":{"type":"Point","coordinates":[-74.13867,40.61602]},"properties":{"name":"Jimmy Max Restaurant"},"id":654},{"type":"Feature","geometry":{"type":"Point","coordinates":[-73.97496,40.7833]},"properties":{"name":"Uno Chicago Grill"},"id":655},{"type":"Feature","geometry":{"type":"Point","coordinates":[-73.99326,40.75244]},"properties":{"name":"T.G.I. Friday'S"},"id":656},{"type":"Feature","geometry":{"type":"Point","coordinates":[-73.9641,40.7567]},"properties":{"name":"Tal Bagels Deli"},"id":657},{"type":"Feature","geometry":{"type":"Point","coordinates":[-73.97673,40.78598]},"properties":{"name":"Cafe Lalo"},"id":658},{"type":"Feature","geometry":{"type":"Point","coordinates":[-73.90745,40.81269]},"properties":{"name":"Venice Restaurant"},"id":659},{"type":"Feature","geometry":{"type":"Point","coordinates":[-73.99906,40.72838]},"properties":{"name":"Peculiar Pub"},"id":660},{"type":"Feature","geometry":{"type":"Point","coordinates":[-73.94972,40.65366]},"properties":{"name":"Nostrand Island Eatery"},"id":661},{"type":"Feature","geometry":{"type":"Point","coordinates":[-73.9104,40.87455]},"properties":{"name":"Arturo'S Pizza"},"id":662},{"type":"Feature","geometry":{"type":"Point","coordinates":[-73.9105,40.80052]},"properties":{"name":"Walnut Bus Stop"},"id":663},{"type":"Feature","geometry":{"type":"Point","coordinates":[-73.82909,40.7588]},"properties":{"name":"Kelly'S Pub"},"id":664},{"type":"Feature","geometry":{"type":"Point","coordinates":[-73.98011,40.68622]},"properties":{"name":"Areo Restaurant"},"id":665},{"type":"Feature","geometry":{"type":"Point","coordinates":[-73.98057,40.7652]},"properties":{"name":"Trattoria Della Arte"},"id":666},{"type":"Feature","geometry":{"type":"Point","coordinates":[-74.06526,40.61245]},"properties":{"name":"Rosebank Tavern"},"id":667},{"type":"Feature","geometry":{"type":"Point","coordinates":[-73.97615,40.6309]},"properties":{"name":"Green Pavilion Restaurant & Sports Lounge"},"id":668},{"type":"Feature","geometry":{"type":"Point","coordinates":[-73.99838,40.72906]},"properties":{"name":"Tre Giovani Pizza & Pasta"},"id":669},{"type":"Feature","geometry":{"type":"Point","coordinates":[-73.9595,40.77372]},"properties":{"name":"Lenox Hill Grill/Pizza"},"id":670},{"type":"Feature","geometry":{"type":"Point","coordinates":[-73.93918,40.84421]},"properties":{"name":"Galicia Restaurant"},"id":671},{"type":"Feature","geometry":{"type":"Point","coordinates":[-78.87722,42.89546]},"properties":{"name":"T.G.I. Friday'S"},"id":672},{"type":"Feature","geometry":{"type":"Point","coordinates":[-73.85296,40.83376]},"properties":{"name":"Wendy'S"},"id":673},{"type":"Feature","geometry":{"type":"Point","coordinates":[-73.99162,40.75939]},"properties":{"name":"Westway Diner"},"id":674},{"type":"Feature","geometry":{"type":"Point","coordinates":[-73.99988,40.74289]},"properties":{"name":"Rocking Horse Cafe"},"id":675},{"type":"Feature","geometry":{"type":"Point","coordinates":[-73.95858,40.80978]},"properties":{"name":"Masawa"},"id":676},{"type":"Feature","geometry":{"type":"Point","coordinates":[-73.94838,40.63251]},"properties":{"name":"Luigi'S Pizza"},"id":677},{"type":"Feature","geometry":{"type":"Point","coordinates":[-74.00514,40.72816]},"properties":{"name":"Sob'S"},"id":678},{"type":"Feature","geometry":{"type":"Point","coordinates":[-74.00703,40.71969]},"properties":{"name":"Walker'S Restaurant"},"id":679},{"type":"Feature","geometry":{"type":"Point","coordinates":[-73.99349,40.75667]},"properties":{"name":"Holland Bar"},"id":680},{"type":"Feature","geometry":{"type":"Point","coordinates":[-73.85551,40.84066]},"properties":{"name":"The Pizza Place"},"id":681},{"type":"Feature","geometry":{"type":"Point","coordinates":[-73.97607,40.78032]},"properties":{"name":"Scaletta Ristorante"},"id":682},{"type":"Feature","geometry":{"type":"Point","coordinates":[-73.94025,40.75098]},"properties":{"name":"Lucky Pizza"},"id":683},{"type":"Feature","geometry":{"type":"Point","coordinates":[-73.99209,40.63543]},"properties":{"name":"Amnon Kosher Pizza"},"id":684},{"type":"Feature","geometry":{"type":"Point","coordinates":[-73.97818,40.75778]},"properties":{"name":"T.G.I. Friday'S"},"id":685},{"type":"Feature","geometry":{"type":"Point","coordinates":[-73.98557,40.73075]},"properties":{"name":"Angelica Kitchen"},"id":686},{"type":"Feature","geometry":{"type":"Point","coordinates":[-74.00661,40.73393]},"properties":{"name":"Cowgirl Hall Of Fame"},"id":687},{"type":"Feature","geometry":{"type":"Point","coordinates":[-73.97889,40.76054]},"properties":{"name":"Yip'S"},"id":688},{"type":"Feature","geometry":{"type":"Point","coordinates":[-73.84193,40.8803]},"properties":{"name":"White Castle"},"id":689},{"type":"Feature","geometry":{"type":"Point","coordinates":[-73.92067,40.86772]},"properties":{"name":"Pipers Kilt"},"id":690},{"type":"Feature","geometry":{"type":"Point","coordinates":[-73.98645,40.69155]},"properties":{"name":"Lee'S Villa Chinese Restaurant"},"id":691},{"type":"Feature","geometry":{"type":"Point","coordinates":[-73.91816,40.81519]},"properties":{"name":"Isla Restauraunt"},"id":692},{"type":"Feature","geometry":{"type":"Point","coordinates":[-74.10646,40.63461]},"properties":{"name":"Puttin On A Bagel"},"id":693},{"type":"Feature","geometry":{"type":"Point","coordinates":[-74.01229,40.70748]},"properties":{"name":"Champ'S Deli"},"id":694},{"type":"Feature","geometry":{"type":"Point","coordinates":[-73.96698,40.80497]},"properties":{"name":"Famous Famiglia Pizza"},"id":695},{"type":"Feature","geometry":{"type":"Point","coordinates":[-74.00148,40.73716]},"properties":{"name":"Bennys Burritos"},"id":696},{"type":"Feature","geometry":{"type":"Point","coordinates":[-73.8837,40.70194]},"properties":{"name":"Glendale Pizza"},"id":697},{"type":"Feature","geometry":{"type":"Point","coordinates":[-73.9619,40.66757]},"properties":{"name":"Brooklyn Botanic Catering Hall"},"id":698},{"type":"Feature","geometry":{"type":"Point","coordinates":[-73.81777,40.82043]},"properties":{"name":"Spoto'S Restaurant"},"id":699},{"type":"Feature","geometry":{"type":"Point","coordinates":[-73.97081,40.79397]},"properties":{"name":"Dive Bar"},"id":700},{"type":"Feature","geometry":{"type":"Point","coordinates":[-73.97937,40.75429]},"properties":{"name":"The Cornell Center Of New York"},"id":701},{"type":"Feature","geometry":{"type":"Point","coordinates":[-73.94876,40.651]},"properties":{"name":"Queen Bee'S Tavern"},"id":702},{"type":"Feature","geometry":{"type":"Point","coordinates":[-73.96099,40.77821]},"properties":{"name":"Nectar Of 82Nd Street"},"id":703},{"type":"Feature","geometry":{"type":"Point","coordinates":[-73.94319,40.71466]},"properties":{"name":"White Castle"},"id":704},{"type":"Feature","geometry":{"type":"Point","coordinates":[-73.97129,40.7881]},"properties":{"name":"Bella Luna"},"id":705},{"type":"Feature","geometry":{"type":"Point","coordinates":[-73.97864,40.75271]},"properties":{"name":"T.G.I. Friday'S"},"id":706},{"type":"Feature","geometry":{"type":"Point","coordinates":[-73.91535,40.76374]},"properties":{"name":"Baskin Robbins"},"id":707},{"type":"Feature","geometry":{"type":"Point","coordinates":[-73.98764,40.73582]},"properties":{"name":"Yama Japanese Restaurant'"},"id":708},{"type":"Feature","geometry":{"type":"Point","coordinates":[-74.03209,40.62158]},"properties":{"name":"Chadwick'S"},"id":709},{"type":"Feature","geometry":{"type":"Point","coordinates":[-73.98604,40.723]},"properties":{"name":"2A"},"id":710},{"type":"Feature","geometry":{"type":"Point","coordinates":[-73.99625,40.69516]},"properties":{"name":"Teresa'S Resturant"},"id":711},{"type":"Feature","geometry":{"type":"Point","coordinates":[-73.96276,40.76924]},"properties":{"name":"Sette Mezzo"},"id":712},{"type":"Feature","geometry":{"type":"Point","coordinates":[-73.98857,40.7603]},"properties":{"name":"La Rivista Restaurant"},"id":713},{"type":"Feature","geometry":{"type":"Point","coordinates":[-73.98485,40.75331]},"properties":{"name":"Pax Wholesome Foods"},"id":714},{"type":"Feature","geometry":{"type":"Point","coordinates":[-73.98741,40.72863]},"properties":{"name":"Dallas Bbq"},"id":715},{"type":"Feature","geometry":{"type":"Point","coordinates":[-73.98779,40.72928]},"properties":{"name":"Sakebar Decibel"},"id":716},{"type":"Feature","geometry":{"type":"Point","coordinates":[-73.98788,40.71975]},"properties":{"name":"El Castillo De Jagua Rest"},"id":717},{"type":"Feature","geometry":{"type":"Point","coordinates":[-73.82328,40.86894]},"properties":{"name":"Bagel Cafe"},"id":718},{"type":"Feature","geometry":{"type":"Point","coordinates":[-0.712,51.65147]},"properties":{"name":"T.G.I. Fridays"},"id":719},{"type":"Feature","geometry":{"type":"Point","coordinates":[-73.98423,40.72539]},"properties":{"name":"Benny'S Burritos"},"id":720},{"type":"Feature","geometry":{"type":"Point","coordinates":[-73.98729,40.72541]},"properties":{"name":"Guayoyo"},"id":721},{"type":"Feature","geometry":{"type":"Point","coordinates":[-73.98725,40.76627]},"properties":{"name":"Sacco Pizza"},"id":722},{"type":"Feature","geometry":{"type":"Point","coordinates":[-73.92703,40.76294]},"properties":{"name":"Sac'S Pizza Place"},"id":723},{"type":"Feature","geometry":{"type":"Point","coordinates":[-74.00172,40.73599]},"properties":{"name":"Rivoli Pizza Restaurant"},"id":724},{"type":"Feature","geometry":{"type":"Point","coordinates":[-73.78014,40.77795]},"properties":{"name":"Baybridge Szechuan Restaurant"},"id":725},{"type":"Feature","geometry":{"type":"Point","coordinates":[-73.84921,40.73168]},"properties":{"name":"Ideal Donut"},"id":726},{"type":"Feature","geometry":{"type":"Point","coordinates":[-73.88814,40.65541]},"properties":{"name":"Royal Pizza"},"id":727},{"type":"Feature","geometry":{"type":"Point","coordinates":[-73.96522,40.80548]},"properties":{"name":"Tom'S Restaurant"},"id":728},{"type":"Feature","geometry":{"type":"Point","coordinates":[-73.99167,40.73715]},"properties":{"name":"Campeon"},"id":729},{"type":"Feature","geometry":{"type":"Point","coordinates":[-73.90242,40.85456]},"properties":{"name":"Vinny'S Famous Pizza"},"id":730},{"type":"Feature","geometry":{"type":"Point","coordinates":[-73.96571,40.76017]},"properties":{"name":"Townhouse Of Ny"},"id":731},{"type":"Feature","geometry":{"type":"Point","coordinates":[-73.96001,40.77007]},"properties":{"name":"Dallas Bbq"},"id":732},{"type":"Feature","geometry":{"type":"Point","coordinates":[-73.81893,40.82116]},"properties":{"name":"Rino'S"},"id":733},{"type":"Feature","geometry":{"type":"Point","coordinates":[-73.77206,40.76503]},"properties":{"name":"Uno Chicago Grill"},"id":734},{"type":"Feature","geometry":{"type":"Point","coordinates":[-73.91776,40.74236]},"properties":{"name":"Bliss Street Station Restaurant"},"id":735},{"type":"Feature","geometry":{"type":"Point","coordinates":[-74.00349,40.72214]},"properties":{"name":"Lucky Strike"},"id":736},{"type":"Feature","geometry":{"type":"Point","coordinates":[-73.96605,40.75609]},"properties":{"name":"Ah! Chihuahua"},"id":737},{"type":"Feature","geometry":{"type":"Point","coordinates":[-73.89563,40.72697]},"properties":{"name":"Rosa'S Pizza"},"id":738},{"type":"Feature","geometry":{"type":"Point","coordinates":[-74.01153,40.70611]},"properties":{"name":"Champ Gourmet"},"id":739},{"type":"Feature","geometry":{"type":"Point","coordinates":[-73.96854,40.71035]},"properties":{"name":"Giando"},"id":740},{"type":"Feature","geometry":{"type":"Point","coordinates":[-73.84257,40.71912]},"properties":{"name":"Austin House"},"id":741},{"type":"Feature","geometry":{"type":"Point","coordinates":[-73.83846,40.58252]},"properties":{"name":"Wharf Bar And Grill"},"id":742},{"type":"Feature","geometry":{"type":"Point","coordinates":[-73.9908,40.71568]},"properties":{"name":"Classic Coffee Shop"},"id":743},{"type":"Feature","geometry":{"type":"Point","coordinates":[-73.74757,40.69596]},"properties":{"name":"O G Restaurant"},"id":744},{"type":"Feature","geometry":{"type":"Point","coordinates":[-73.98482,40.76457]},"properties":{"name":"Da Tommasso"},"id":745},{"type":"Feature","geometry":{"type":"Point","coordinates":[-73.99181,40.69133]},"properties":{"name":"Queen"},"id":746},{"type":"Feature","geometry":{"type":"Point","coordinates":[-73.99639,40.72209]},"properties":{"name":"Pomodoro Ristorante"},"id":747},{"type":"Feature","geometry":{"type":"Point","coordinates":[-73.8424,40.71945]},"properties":{"name":"5 Burro Cafe"},"id":748},{"type":"Feature","geometry":{"type":"Point","coordinates":[-73.9538,40.7731]},"properties":{"name":"Quatorze Bistro"},"id":749},{"type":"Feature","geometry":{"type":"Point","coordinates":[-73.89622,40.74672]},"properties":{"name":"Lucho'S Place"},"id":750},{"type":"Feature","geometry":{"type":"Point","coordinates":[-73.98834,40.72711]},"properties":{"name":"Haveli"},"id":751},{"type":"Feature","geometry":{"type":"Point","coordinates":[-73.8487,40.73196]},"properties":{"name":"Cho-Sen Garden"},"id":752},{"type":"Feature","geometry":{"type":"Point","coordinates":[-73.98471,40.73718]},"properties":{"name":"Barfly"},"id":753},{"type":"Feature","geometry":{"type":"Point","coordinates":[-73.97326,40.79229]},"properties":{"name":"Cleopatra'S Needle"},"id":754},{"type":"Feature","geometry":{"type":"Point","coordinates":[-73.81958,40.82917]},"properties":{"name":"Villa Barone Manor"},"id":755},{"type":"Feature","geometry":{"type":"Point","coordinates":[-73.77163,40.76423]},"properties":{"name":"Papazzio Restaurant"},"id":756},